REPORTING YEAR,FACILITY NAME,GHGRP ID,REPORTED ADDRESS,LATITUDE,LONGITUDE,CITY NAME,COUNTY NAME,STATE,ZIP CODE,PARENT COMPANIES,VALUE,SUBPARTS
2013,#540 BONANZA CREEK ENERGY - DENVER BASIN,1000355,"410 17th Street, Suite 1500",39.74431,-104.98858,Denver,DENVER COUNTY,CO,80202,"BONANZA CREEK ENERGY, INC (100%)",103954,W
2013,121 REGIONAL DISPOSAL FACILITY,1004377,3820 SAM RAYBURN HIGHWAY,33.29857,-96.53586,MELISSA,COLLIN COUNTY,TX,75454,North Texas Municipal Water District (100%),289953,HH
2013,15-18565/15-18662,1010040,4200 S. Hwy 15,37.219099,-83.156046,Hazard,PERRY COUNTY,KY,40701,TECO Coal Corp (100%),306681,FF
2013,15-19015,1010085,1845 S. KY HWY 15,37.236617,-83.18126,Hazard,PERRY,KY,41701,TECO Coal Corporation (100%),57767,FF
2013,220 Gulf Coast,1009263,701 Cedar Lake Blvd,35.56719,-97.49827,Oklahoma City,OKLAHOMA COUNTY,OK,73114,"CHAPARRAL ENERGY, INC (100%)",22166,W
2013,220 Gulf Coast Basin DEC,1009238,333 West Sheridan Ave,35.4711808,-97.516602,Oklahoma City,,OK,73102,Devon Energy Corporation (100%),36014,W
2013,230 Arkla Basin DEC,1008121,333 West Sheridan Ave,35.4711808,-97.516602,Oklahoma City,,OK,73102,Devon Energy Corporation (100%),11541,W
2013,230 Arkla Basin QEP Energy Company,1009283,1050 17th Street Unit 800,39.7480769,-104.994564,Denver,,CO,80265,QEP RESOURCES INC (100%),134733,W
2013,23rd and 3rd,1000112,730 3rd Avenue,40.663,-74,BROOKLYN,Kings,NY,11232,New York Power Authority (100%),48,"C,D"
2013,260 East Texas Basin,1009117,701 Cedar Lake Blvd,35.56719,-97.49827,Oklahoma City,OKLAHOMA COUNTY,OK,73114,"CHAPARRAL ENERGY, INC (100%)",10807,W
2013,260 East Texas Basin - BP America Production Company,1009170,501 Westlake Park Blvd.,29.78037,-95.6295,Houston,HARRIS COUNTY,TX,77079,BP AMERICA INC (100%),44599,W
2013,29-6 #2 Central Delivery Point,1006394,,36.7452,-107.4455,Blanco,Rio Arriba,NM,87412,"WILLIAMS PARTNERS, LP (100%)",7,C
2013,30-5 Central Delivery Point Compressor Station,1002885,,36.8118,-107.4036,Aztec,Rio Arriba,NM,87410,"WILLIAMS PARTNERS, LP (100%)",11,C
2013,31-6 Central Delivery Point,1002707,,36.8363,-107.4199,BLOOMFIELD,Rio Arriba,NM,87413,"WILLIAMS PARTNERS, LP (100%)",32,C
2013,31st Street Landfill,1003742,11700 W 31ST ST,41.835129,-87.915924,WESTCHESTER,COOK COUNTY,IL,60154,ARCHDIOCESE OF CHICAGO (100%),97468,HH
2013,32-7 Central Delivery Point,1002718,,36.9313,-107.5604,BLANCO,SAN JUAN,NM,87412,"WILLIAMS PARTNERS, LP (100%)",20,C
2013,32-8 #2 CDP COMPRESSOR STATION,1002721,,36.9569,-107.6631,BLANCO,SAN JUAN,NM,87412,"WILLIAMS PARTNERS, LP (100%)",22,C
2013,340 Arkoma Basin QEP Energy Company,1009284,"6100 South Yale, Suite 900",36.0613546,-95.9515399,Tulsa,,OK,74136,QEP RESOURCES INC (100%),55536,W
2013,345 Arkoma Basin - BP America Production Company,1009169,501 Westlake Park Blvd.,29.78037,-95.6295,Houston,HARRIS COUNTY,TX,77079,BP AMERICA INC (100%),169942,W
2013,345 Arkoma Basin DEC,1008285,333 West Sheridan Ave,35.46734,-97.51406,Oklahoma City,,OK,73102,Devon Energy Corporation (100%),10547,W
2013,350 South Oklahoma Folded Belt,1009119,701 Cedar Lake Blvd,35.56719,-97.49827,Oklahoma City,OKLAHOMA COUNTY,OK,73114,"CHAPARRAL ENERGY, INC (100%)",5723,W
2013,355 Chatauque Platform,1009264,701 Cedar Lake Blvd,35.56719,-97.49827,Oklahoma City,OKLAHOMA COUNTY,OK,73114,"CHAPARRAL ENERGY, INC (100%)",16142,W
2013,355 Chautauqua Platform DEC,1008286,333 West Sheridan Ave,35.4711808,-97.516602,Oklahoma City,,OK,73102,Devon Energy Corporation (100%),26815,W
2013,360 Anadarko Basin,1009265,701 Cedar Lake Blvd,35.56719,-97.49827,Oklahoma City,OKLAHOMA COUNTY,OK,73114,"CHAPARRAL ENERGY, INC (100%)",130455,W
2013,360 Anadarko Basin - BP America Production Company,1008558,501 Westlake Park Blvd,29.78037,-95.6295,Houston,HARRIS COUNTY,TX,77079,BP AMERICA INC (100%),237102,W
2013,360 Anadarko Basin DEC,1008287,333 West Sheridan Ave,35.4711808,-97.516602,Oklahoma City,,OK,73102,Devon Energy Corporation (100%),196017,W
2013,360 Anadarko Basin QEP Energy Company,1009285,"6100 South Yale, Suite 900",36.072617,-95.923102,Tulsa,,OK,74136,QEP RESOURCES INC (100%),32417,W
2013,395 Williston Basin QEP Energy Company,1009281,"1050 17th Street, Suite 500",39.74846,-104.99402,Denver,DENVER COUNTY,CO,80265,QEP RESOURCES INC (100%),97673,W
2013,3M BROWNWOOD,1003188,4501 HIGHWAY 377 SOUTH,31.671177,-98.996513,BROWNWOOD,BROWN,TX,76801,3M Company (100%),16,"C,N"
2013,3M CO,1005043,,44.951,-92.9959,MAPLEWOOD,RAMSEY COUNTY,MN,55144,3M Company (100%),38,C
2013,3M CO - GUIN,1003739,6675 US HIGHWAY 43,33.96548,-87.89936,GUIN,MARION COUNTY,AL,35563,3M Company (100%),15,"C,N"
2013,3M CO - WAUSAU DOWNTOWN,1007698,144 ROSECRANS ST,44.95018,-89.63766,WAUSAU,MARATHON,WI,54401,3M CO (100%),14,C
2013,3M COMPANY,1004206,1400 STATE DOCKS RD.,34.641667,-87.038611,DECATUR,MORGAN,AL,35609,3M Center (100%),26,"C,L,OO"
2013,3M CORDOVA,1006665,22614 ROUTE 84 NORTH,41.755,-90.284167,CORDOVA,ROCK ISLAND,IL,61242,3M Company (100%),15,"C,L,OO"
2013,3M Cottage Grove Center - Site,1004836,10746 Innovation Rd,44.789444,-92.908333,Cottage Grove,WASHINGTON COUNTY,MN,55016,3M (100%),21,"C,L,N,OO"
2013,3M INDUSTRIAL MINERAL PRODUCTS DIVISION,1003408,3110 WALTERS DRIVE,34.708919,-92.239492,LITTLE ROCK,PULASKI COUNTY,AR,72216,3M CO (100%),13,C
2013,3M MAGNETIC TAPE MANUFACTURING DIVISION,1004914,905-915 ADAMS STREET SOUTHEAST,44.879677,-94.359598,HUTCHINSON,MCLEOD COUNTY,MN,55350,3M CO (100%),18,C
2013,3M NEVADA PLANT,1004804,2120 E. AUSTIN,37.834476,-94.330625,NEVADA,VERNON COUNTY,MO,64772,3M Company (100%),14,C
2013,415 Strawn Basin DEC,1009276,333 West Sheridan Ave,35.4711808,-97.516602,Oklahoma City,,OK,73102,Devon Energy Corporation (100%),115969,W
2013,420 Fort Worth Syncline DEC,1008289,333 West Sheridan Ave,35.4711808,-97.516602,Oklahoma City,,OK,73102,Devon Energy Corporation (100%),344165,W
2013,430 Permian Basin,1009270,701 Cedar Lake Blvd,35.56719,-97.49827,Oklahoma City,OKLAHOMA COUNTY,OK,73114,"CHAPARRAL ENERGY, INC (100%)",20446,W
2013,430 Permian Basin DEC,1008290,333 West Sheridan Ave,35.4711808,-97.516602,Oklahoma City,,OK,73102,Devon Energy Corporation (100%),188143,W
2013,430 Permian Basin QEP Energy Company,1009691,1050 17th Street Unit 800,29.75608,-95.36433,Denver,HARRIS COUNTY,CO,80265,"EnerVest Operating, LLC (100%)",47992,W
2013,48th Street Peaking Station,1001106,491 E 48TH ST,42.7553,-86.0853,HOLLAND,Allegan,MI,49423,Holland Board of Public Works (100%),5,"C,D"
2013,507 Central Western Overthrust QEP Energy Company,1008294,"1050 17th Street, Suite 500",39.74846,-104.99402,Denver,DENVER COUNTY,CO,80265,QEP RESOURCES INC (100%),26261,W
2013,515 Powder River Basin DEC,1009278,333 West Sheridan Ave,35.4711808,-97.516602,Oklahoma City,,OK,73102,Devon Energy Corporation (100%),11940,W
2013,515 Powder River Basin RKI Exploration & Production,1011262,"3817 NW Expressway, STE 950",35.513564,-97.578898,Oklahoma City,OKLAHOMA COUNTY,OK,73112,RKI Exploration & Production LLC (100%),11703,W
2013,535 Green River Basin - BP America Production Company,1008622,501 Westlake Park Blvd.,29.78037,-95.6295,Houston,HARRIS COUNTY,TX,77079,BP AMERICA INC (100%),772648,W
2013,535 Green River Basin DEC,1008621,333 West Sheridan Ave,35.4711808,-97.516602,Oklahoma City,,OK,73102,Devon Energy Corporation (100%),109303,W
2013,535 Green River Basin QEP Energy Company,1008295,"1050 17th Street, Suite 500",39.74846,-104.99402,Denver,DENVER COUNTY,CO,80265,QEP RESOURCES INC (100%),149927,W
2013,575 Uinta Basin QEP Energy Company,1009282,"1050 17th Street, Suite 500",39.7480769,-104.994564,Denver,,CO,80265,QEP RESOURCES INC (100%),389205,W
2013,580 San Juan Basin - BP America Production Company,1009076,501 Westlake Park Blvd.,29.78037,-95.6295,Houston,HARRIS COUNTY,TX,77079,BP AMERICA INC (100%),1043153,W
2013,580 San Juan Basin DEC,1008974,333 West Sheridan Ave,35.46735,-97.5145,Oklahoma City,,OK,73102,Devon Energy Corporation (100%),43227,W
2013,58TH ST LF (MAIN COUNTY LF),1004680,8831 NW 58TH ST,25.83301,-80.3465,MIAMI,MIAMI-DADE COUNTY,FL,33178,Miami Dade Public Works and Waste Management Department (100%),95193,HH
2013,59th Street,1000766,850 12TH AVE,40.7711,-73.9911,NEW YORK,New York,NY,10019,CONSOLIDATED EDISON INC (100%),129,C
2013,69TH ST WWTP,1007733,2525 SSGT MACARIO GARCIA DR,29.75579,-95.29791,HOUSTON,HARRIS COUNTY,TX,77020,City of Houston (100%),13,C
2013,745 San Joaquin Basin Chevron USA Inc.,1008499,6001 Bollinger Canyon Rd.,37.795963,-122.022317,San Ramon,CONTRA COSTA,CA,94583,Chevron Corporation (100%),9339,W
2013,74th Street,1000767,506 E 75TH ST,40.768,-73.9515,NEW YORK,New York,NY,10021,CONSOLIDATED EDISON INC (100%),196,C
2013,A B Brown Generating Station,1001033,8511 WELBORN ROAD,37.9053,-87.715,MOUNT VERNON,Posey,IN,47620,VECTREN CORP (100%),7449,D
2013,A&AT LLC WAYNESBORO FACILITY,1002342,400 DU PONT BOULEVARD,38.061111,-78.883333,WAYNESBORO,WAYNESBORO CITY,VA,22980,KOCH INDUSTRIES INC (100%),239,C
2013,AAP ST MARYS CORP,1005445,1100 MCKINLEY RD.,40.55359,-84.3723,SAINT MARYS,AUGLAIZE COUNTY,OH,45885,HITACHI AMERICA LTD (100%),15,C
2013,ABBOTT NUTRITION,1002853,901 NORTH CENTERVILLE ROAD,41.8095,-85.426,STURGIS,ST. JOSEPH COUNTY,MI,49091,ABBOTT LABORATORIES (100%),11,C
2013,ABBOTT PARK FACILITY,1002983,100 ABBOTT PARK RD,42.30227,-87.89065,ABBOTT PARK,LAKE,IL,60064,ABBOTT LABORATORIES (100%),65,C
2013,ABBVIE LTD.,1007514,RD 2 KM 58.0,18.433237,-66.570509,BARCELONETA,BARCELONETA MUNICIPIO,PR,617,AbbVie Inc. (100%),107,C
2013,ABC COKE,1004511,ONE RAILROAD AVENUE,33.580769,-86.781281,TARRANT,JEFFERSON COUNTY,AL,35217,DRUMMOND CO INC (100%),48,"C,Q"
2013,"ABE South Dakota, LLC - Aberdeen",1002047,38469 133rd Street,45.459444,-98.5325,Aberdeen,BROWN COUNTY,SD,57401,ADVANCED BIOENERGY LLC (100%),442,"C,II"
2013,"ABE South Dakota, LLC - Huron",1002074,694 W PARK AVE NW,44.374508,-98.253288,HURON,BEADLE COUNTY,SD,57350,ADVANCED BIOENERGY LLC (100%),22,"C,II"
2013,ABERDEEN ENERGY LLC,1005353,13435 370TH AVENUE,45.442417,-98.787139,MINA,EDMUNDS COUNTY,SD,57451,GLACIAL LAKES CORN PROCESSORS (100%),86,C
2013,ABERDEEN PROVING GROUND-Aberdeen Area & Edgewood Area,1006971,4304 Susquehanna Ave,39.395404,-76.30773,APG,HARFORD COUNTY,MD,21005,,22,C
2013,ABRAHAM COMPRESSOR STATION,1003091,9835 US HWY 60,35.766656,-100.478642,CANADIAN,HEMPHILL COUNTY,TX,79014,"Enbridge Energy Partners, L.P. (100%)",15,C
2013,ABSOLUTE ENERGY LLC,1002627,1372 STATELINE ROAD,43.49951,-92.91709,ST ANSGAR (MONA),MITCHELL COUNTY,IA,50472,"ABSOLUTE ENERGY, LLC (100%)",297,"C,II"
2013,AC 857 A,1002685,,26.29555555,-94.89777777,Offshore,,TX,0,Shell Petroleum Inc (100%),7192,"C,W"
2013,ACADIA PARISH POLICE JURY - ACADIA PARISH SANITARY LANDFILL,1006529,611 PETAL RD,30.256038,-92.532637,EGAN,ACADIA PARISH,LA,70531,ACADIA PARISH POLICE JURY (100%),50323,HH
2013,ACE Cogeneration Company,1004830,12801 Mariposa Street,35.7655,-117.3821,Trona,SAN BERNARDINO COUNTY,CA,93562,ACE Cogeneration Company (100%),1111,C
2013,ACE ETHANOL LLC,1004761,815 WEST MAPLE STREET,44.9589,-90.9608,STANLEY,CHIPPEWA,WI,54768,"ACE ETHANOL, LLC (100%)",34,"C,PP"
2013,ACME BRICK CO ELGIN PLANT,1005601,1776 OLD MCDADE RD,30.32903,-97.29207,ELGIN,BASTROP COUNTY,TX,78621,ACME BRICK COMPANY (100%),15,C
2013,ACME GYPSUM FACILITY,1005046,4164 HIGHWAY 285,34.323,-99.817306,QUANAH,HARDEMAN,TX,79252,"Koch Industries, Inc (100%)",14,C
2013,ADA COGENERATION,1002731,7575 FULTON STREET EAST,42.955455,-85.479053,ADA,KENT,MI,49355,"Thornapple Energy, LLC (50%); White Pine Energy, LLC (50%)",48,C
2013,"ADA Carbon Solutions (Red River), LLC",1003752,201 Red River Mine Road,32.005405,-93.387829,Coushatta,RED RIVER PARISH,LA,71019,"ADA Carbon Solutions, LLC (100%)",2,C
2013,ADKINS ENERGY LLC,1003422,4350 WEST GALENA ROAD,42.3586,-89.80342,LENA,STEPHENSON COUNTY,IL,61048,ADKINS ENERGY LLC (100%),137,"C,II"
2013,ADM - MANKATO,1002154,2019 3RD AVENUE,44.186805,-93.995493,MANKATO,BLUE EARTH COUNTY,MN,56001,ARCHER DANIELS MIDLAND CO (100%),331,C
2013,ADM CORN PROCESSING,1006047,1350 WACONIA AVENUE SOUTHWEST,41.928594,-91.687203,CEDAR RAPIDS,LINN COUNTY,IA,52404,ARCHER DANIELS MIDLAND CO (100%),8718,"C,II,PP"
2013,ADM CORN PROCESSING,1006208,1251 BEAVER CHANNEL PARKWAY,41.818117,-90.214731,CLINTON,CLINTON COUNTY,IA,52732,Archer Daniels Midland (100%),6438,"C,TT"
2013,ADM Deerfield,1010610,17700 South Highway T,37.80725,-94.585301,Deerfield,VERNON,MO,64741,Archer Daniels Midland (100%),15,C
2013,ADM MILLING COMPANY,1000034,1935 EAST EUCLID AVENUE,41.626329,-93.583205,DES MOINES,POLK COUNTY,IA,50313,ARCHER DANIELS MIDLAND CO (100%),345,C
2013,ADM QUINCY,1000376,2100 GARDNER EXPRESSWAY,39.903884,-91.410552,QUINCY,ADAMS COUNTY,IL,62305,ARCHER DANIELS MIDLAND CO (100%),290,C
2013,ADM SOUTHERN CELLULOSE PROD.IN,1006080,103 W 45TH ST,34.997921,-85.318581,CHATTANOOGA,HAMILTON COUNTY,TN,37410,ARCHER DANIELS MIDLAND CO (100%),11,C
2013,ADRIAN LANDFILL,1001991,1970 N OGDEN HWY,41.890683,-83.992445,ADRIAN,LENAWEE,MI,49221,"Republic Services, Inc. (100%)",16330,"C,HH"
2013,ADS-CEDAR HILL LANDFILL,1001633,1319 NO BUSINESS CREEK ROAD,33.676247,-86.25444,RAGLAND,ST. CLAIR COUNTY,AL,35131,ADVANCED DISPOSAL SERVICES (100%),87961,HH
2013,ADS-PECAN ROW-EVERGREEN LANDFILLS,1001636,2995 WETHERINGTON LANE,30.81425,-83.35981,VALDOSTA,LOWNDES COUNTY,GA,31601,ADVANCED DISPOSAL SERVICES (100%),311950,HH
2013,ADS-STAR RIDGE LANDFILL,1006790,3301 ACMAR ROAD,33.605845,-86.5201,MOODY,SAINT CLAIR,AL,35004,ADVANCED DISPOSAL SERVICES (100%),75750,HH
2013,ADS/MCLEAN COUNTY LANDFILL,1002094,2105 W OAKLAND AVE,40.465534,-89.03273,BLOOMINGTON,MCLEAN,IL,61704,"Republic Services, Inc. (100%)",32713,"C,HH"
2013,ADVANCED DISPOSAL CRANBERRY CREEK LANDFILL LLC,1001845,2510 ENGEL ROAD,44.4093,-89.854855,WISCONSIN RAPIDS,WOOD,WI,54495,ADVANCED DISPOSAL SERVICES (100%),36019,"C,HH"
2013,ADVANCED DISPOSAL EMERALD PARK LANDFILL LLC,1007212,W124 S10629 SOUTH 124TH STREET,42.849682,-88.07639,MUSKEGO,WAUKESHA COUNTY,WI,53132,ADVANCED DISPOSAL SERVICES (100%),55870,"C,HH"
2013,ADVANCED DISPOSAL GLACIER RIDGE LANDFILL LLC,1007195,N7296 HWY V,43.459531,-88.554139,HORICON,DODGE COUNTY,WI,53032,ADVANCED DISPOSAL SERVICES (100%),50241,"C,HH"
2013,"ADVANCED DISPOSAL HICKORY MEADOWS LANDFILL, LLC",1001847,W3105 SCHNEIDER RD,44.107451,-88.194894,HILBERT,CALUMET,WI,54129,ADVANCED DISPOSAL SERVICES (100%),78780,"C,HH"
2013,"ADVANCED DISPOSAL MALLARD RIDGE LANDFILL, INC",1002038,W8470 STATE RD 11,42.643578,-88.717968,DELEVAN,WALWORTH,WI,53115,ADVANCED DISPOSAL SERVICES (100%),82209,"C,HH"
2013,"ADVANCED DISPOSAL MAPLE HILL LANDFILL, LLC",1003038,31226 INTREPID ROAD,39.73376,-92.53825,MACON,MACON COUNTY,MO,63552,ADVANCED DISPOSAL SERVICES (100%),17601,"C,HH"
2013,ADVANCED DISPOSAL OAK RIDGE LANDFILL,1006979,1741 SULPHUR SPRING ROAD,38.556639,-90.527306,BALWIN,ST. LOUIS COUNTY,MO,63021,ADVANCED DISPOSAL SERVICES (100%),9530,HH
2013,ADVANCED DISPOSAL ORCHARD HILLS LANDFILL INC,1001637,8290 HIGHWAY 251,42.14,-89.085,DAVIS JUNCTION,OGLE,IL,61020,ADVANCED DISPOSAL SERVICES (100%),105128,"C,HH"
2013,ADVANCED DISPOSAL ROLLING HILLS LANDFILL INC,1001843,175 COUNTY ROAD 37 NE,45.24949,-93.87488,BUFFALO,WRIGHT COUNTY,MN,55313,ADVANCED DISPOSAL SERVICES (100%),8351,"C,HH"
2013,ADVANCED DISPOSAL SEVEN MILE CREEK LANDFILL LLC,1006964,8001 OLSON DR,44.837534,-91.367144,EAU CLAIRE,EAU CLAIRE,WI,54703,ADVANCED DISPOSAL SERVICES (100%),44891,"C,HH"
2013,ADVANCED DISPOSAL VALLEY VIEW LANDFILL INC,1006963,1363 BEAR RD,39.822266,-89.043754,DECATUR,MACON COUNTY,IL,62522,ADVANCED DISPOSAL SERVICES (100%),46177,"C,HH"
2013,ADVANCED DISPOSAL ZION LANDFILL,1005985,701 GREEN BAY ROAD,42.483242,-87.873878,ZION,LAKE,IL,60099,ADVANCED DISPOSAL SERVICES (100%),52576,"C,HH"
2013,ADVANSIX INC - CHESTERFIELD PLANT,1000627,4101 BERMUDA HUNDRED RD,37.33963,-77.2884,CHESTER,CHESTERFIELD COUNTY,VA,23836,"HONEYWELL INTERNATIONAL, INC (100%)",21,C
2013,ADVANSIX INCORPORATED - HOPEWELL,1000630,905 EAST RANDOLPH ROAD,37.3016,-77.2719,HOPEWELL,HOPEWELL CITY,VA,23860,"HONEYWELL INTERNATIONAL, INC (100%)",309,"C,G,PP"
2013,AES - PUERTO RICO COGENERATION PLANT,1005310,"KM 142, RTE. #3 BO. JOBOS",17.9451,-66.1503,GUAYAMA,GUAYAMA MUNICIPIO,PR,785,AES CORP (100%),4,C
2013,AES Alamitos,1001444,690 N STUDEBAKER ROAD,33.7688,-118.1009,LONG BEACH,Los Angeles,CA,90803,AES CORP (100%),415,D
2013,AES Beaver Valley LLC,1001222,394 FRANKFORT RD,40.6558,-80.3556,MONACA,Beaver,PA,15061,THE AES CORP (100%),359,D
2013,"AES Deepwater, Inc.",1000281,701 LIGHT COMPANY ROAD,29.7192,-95.2278,PASADENA,Harris,TX,77506,THE AES CORP (100%),411,D
2013,AES HAWAII INC,1005972,91-086 KAOMI LP,21.301222,-158.107306,KAPOLEI,HONOLULU COUNTY,HI,96707,THE AES CORP (100%),3958,C
2013,AES Huntington Beach,1001447,21730 NEWLAND ST,33.6436,-117.9788,HUNTINGTON BEACH,Orange,CA,92646,AES CORP (100%),231,D
2013,AES Redondo Beach,1001450,1100 N HARBOR DRIVE,33.8504,-118.395,REDONDO BEACH,Los Angeles,CA,90277,AES CORP (100%),103,"C,D"
2013,"AES SHADY POINT, LLC",1007781,3 MILES E. OF JUNCTION 31,35.1929,-94.6469,PANAMA,LE FLORE COUNTY,OK,74951,THE AES CORP (100%),7497,"C,PP"
2013,AES Warrior Run,1001223,11600 MEXICO FARMS RD SE,39.5944,-78.7456,CUMBERLAND,Allegany,MD,21502,AES Corporation (100%),398,"C,D,PP"
2013,AFTON CHEMICAL CORP,1003853,501 MONSANTO AVE.,38.602021,-90.16831,SAUGET,ST. CLAIR COUNTY,IL,62201,NEWMARKET CORP (100%),22,C
2013,AG PROCESSING INC A COOP-MANNING,1002070,1000 300TH STREET,41.920794,-95.070791,MANNING,CARROLL,IA,51455,AG PROCESSING INC (100%),12,C
2013,AG PROCESSING INC-EAGLE GROVE,1006054,500 NORTH COMMERCIAL AVENUE,42.66861,-93.90333,EAGLE GROVE,WRIGHT COUNTY,IA,50533,AG PROCESSING INC (100%),317,C
2013,AG PROCESSING INCORPORATED A COOPERATIVE,1002291,800 DIAGONAL STREET,44.93297,-96.05744,DAWSON,LAC QUI PARLE,MN,56232,AG PROCESSING INC (100%),12,C
2013,AGC FLAT GLASS N AMERICA INC,1007333,201 DUNCANNON LANE,37.70035,-84.26846,RICHMOND,MADISON COUNTY,KY,40475,AGC FLAT GLASS NORTH AMERICA (100%),27,"C,N"
2013,AGC FLAT GLASS NORTH AMERICA SPRING HILL PLANT,1004631,20400 NORTH WEBSTER STREET,38.759188,-94.825252,SPRING HILL,JOHNSON,KS,66083,"AGC FLAT GLASS NORTH AMERICA, INC. (100%)",34,"C,N"
2013,AGC-GREENLAND FLATGLASS PLANT,1005824,600 AFG ROAD,36.497,-82.77946,CHURCH HILL,HAWKINS COUNTY,TN,37642,ASAHI GLASS CO (100%),112,"C,N"
2013,AGP SOY/CORN PROCESSING,1002067,2801 E 7TH ST,40.58971,-98.33974,HASTINGS,ADAMS COUNTY,NE,68901,AG PROCESSING INC (100%),886,"C,II"
2013,AGRI ENERGY LLC,1005284,502 SOUTH WALNUT AVENUE,43.648333,-96.224444,LUVERNE,ROCK,MN,56156,Gevo (100%),44,"C,II"
2013,AGRIUM US BORGER NITROGEN OPERATIONS,1002380,9201 FM 1551,35.6417,-101.4228,BORGER,HUTCHINSON COUNTY,TX,79007,AGRIUM US INC (100%),209,"C,G,PP"
2013,AGRIUM US INC,1001154,3010 CONDA ROAD,42.739417,-111.541421,SODA SPRINGS,CARIBOU,ID,83276,"Agrium U.S., Inc (100%)",43,"C,Z"
2013,AGRIUM US INC - KFO,1004236,227515 E BOWLES ROAD,46.165957,-119.017218,KENNEWICK,BENTON,WA,99337,AGRIUM US INC (100%),1,"C,U,V"
2013,AGY LLC,1004374,2556 WAGENER RD.,33.5472,-81.67341,AIKEN,AIKEN COUNTY,SC,29801,AGY HOLDING CO (100%),5,"C,N"
2013,AIR LIQUIDE - FREEPORT HYCO PLANT,1003730,2398 VICTORIA ROAD,28.98037,-95.38396,FREEPORT,BRAZORIA COUNTY,TX,77541,"AMERICAN AIR LIQUIDE HOLDINGS, INC (100%)",7,C
2013,AIR LIQUIDE - PORT NECHES ASU COGENERATION PLANT,1003780,2121 PARK STREET,29.981116,-93.952389,PORT NECHES,JEFFERSON COUNTY,TX,77651,Air Liquide Large Industries U.S. LP (100%),97,C
2013,AIR LIQUIDE AMERICA CORP.,1006115,36597 HWY 30,30.21023,-90.99085,GEISMAR,ASCENSION PARISH,LA,70734,Air Liquide America LP (100%),222,C
2013,AIR LIQUIDE GEISMAR UTILITY SERVICES,1003591,36183 HWY 30,30.21023,-90.99085,GEISMAR,ASCENSION PARISH,LA,70734,"AMERICAN AIR LIQUIDE HOLDINGS, INC (100%)",48,C
2013,AIR PRODUCTS & CHEMICALS INC - INDUSTRIAL GAS PRODUCTION FACILITY,1003009,14700 INTRACOASTAL DRIVE,30.028333,-89.901111,NEW ORLEANS,ORLEANS,LA,70129,AIR PRODUCTS & CHEMICALS INC (100%),2,"C,P"
2013,"AIR PRODUCTS & CHEMICALS, INC, Tesoro Martinez",1002122,,38.026667,-122.067222,MARTINEZ,CONTRA COSTA COUNTY,CA,94553,AIR PRODUCTS & CHEMICALS INC (100%),9,P
2013,AIR PRODUCTS BAYTOWN PLANT,1002430,5503 WEST BAKER ROAD,29.757778,-95.023056,BAYTOWN,HARRIS COUNTY,TX,77520,AIR PRODUCTS & CHEMICALS INC (100%),28,"C,P"
2013,AIR PRODUCTS WILMINGTON HYDROGEN PLANT,1002435,700 HENRY FORD AVENUE,33.780833,-118.241111,WILMINGTON,LOS ANGELES,CA,90744,AIR PRODUCTS & CHEMICALS INC (100%),223,P
2013,"AJINOMOTO HEARTLAND, INC.",1001919,1116 Highway 137,41.143573,-92.647934,EDDYVILLE,MONROE COUNTY,IA,52553,"Ajinomoto Heartland, INC (100%)",55,C
2013,AK STEEL,1003418,1724 LINDEN AVENUE,39.96136,-82.00034,ZANESVILLE,MUSKINGUM COUNTY,OH,43701,AK Steel Corporation (100%),7,C
2013,AK STEEL CORP *,1003417,17400 STATE ROUTE 16,40.20669,-81.88549,COSHOCTON,COSHOCTON COUNTY,OH,43812,AK Steel Corporation (100%),24,C
2013,AK STEEL CORP MANSFIELD WORKS,1006530,913 BOWMAN STREET,40.78513,-82.52384,MANSFIELD,RICHLAND COUNTY,OH,44903,AK STEEL CORP (100%),30,"C,Q"
2013,AK STEEL CORP/BUTLER WORKS,1002903,1 ARMCO DR,40.82926,-79.94273,BUTLER,BUTLER COUNTY,PA,16003,AK Steel Corporation (100%),95,"C,Q"
2013,AK STEEL CORPORATION,1000214,6500 N US HIGHWAY 231,37.9849,-87.0259,ROCKPORT,SPENCER COUNTY,IN,47635,AK Steel Corporation (100%),65,C
2013,AK STEEL DEARBORN WORKS,1003403,4001 MILLER RD,42.301742,-83.162934,DEARBORN,WAYNE COUNTY,MI,48120,"SEVERSTAL NORTH AMERICA, INC (100%)",186,"C,Q"
2013,AK Steel Corporation - Middletown,1000274,1801 CRAWFORD STREET,39.4968,-84.3901,MIDDLETOWN,Butler,OH,45043,AK STEEL CORP (100%),714,"C,Q"
2013,AK Steel Corporation West Works,1005615,170 Armco Road,38.496367,-82.670282,Ashland,BOYD COUNTY,KY,41101,AK STEEL CORP (100%),146,"C,Q"
2013,AKER PLANT,1003129,261 FCR 181,31.90806,-96.227219,STREETMAN,FREESTONE,TX,75859,"Enbridge Energy Partners, L.P. (100%)",1627,"C,PP,W"
2013,AKRON REGIONAL LANDFILL *,1006088,1585 HARDY ROAD,41.151282,-81.559298,AKRON,SUMMIT,OH,44313,"Waste Management, Inc. (100%)",1742,HH
2013,AKZO NOBEL SURFACE CHEMISTRY LLC,1007343,8005 NORTH TABLER RD.,41.40649,-88.33607,MORRIS,GRUNDY,IL,60450,"Akzo Nobel Chemicals, Inc. (100%)",26,C
2013,AL CORN CLEAN FUEL,1005149,797 5th Street,44.049412,-93.017379,CLAREMONT,DODGE COUNTY,MN,55924,AL-CORN CLEAN FUEL (100%),145,"C,II,PP"
2013,AL Sandersville,1000129,1600 MILLS LINDSEY SCHOOL ROAD,33.1189,-82.8608,WARTHEN,Washington,GA,31094,"AL SANDERSVILLE, LLC (100%)",1,D
2013,AL TURI LANDFILL & LFGTE FACILITY,1004823,73 HARTLEY ROAD,41.40646,-74.37313,GOSHEN,ORANGE COUNTY,NY,10924,"AL TURI LANDFILL, INC (100%)",29505,"C,HH"
2013,"ALABAMA RIVER CELLULOSE, LLC",1007917,2373 LENA LANDEGGER HWY,31.580112,-87.490073,PERDUE HILL,MONROE COUNTY,AL,36470,KOCH INDUSTRIES INC (100%),164532,"AA,C,TT"
2013,ALADDIN MILLS - ANTIOCH RD PLA NT,1007272,2001 ANTIOCH ROAD,34.73559,-84.94996,DALTON,WHITFIELD COUNTY,GA,30720,"MOHAWK INDUSTRIES, INC (100%)",25,C
2013,ALBANY LANDFILL,1006276,525 RAPP RD,42.70324,-73.84958,ALBANY,ALBANY COUNTY,NY,12205,City of Albany (100%),107918,HH
2013,ALBEMARLE CORP,1004231,725 CANNON BRIDGE ROAD,33.46738,-80.88406,ORANGEBURG,ORANGEBURG COUNTY,SC,29115,ALBEMARLE CORP (100%),22697,"C,TT"
2013,ALBEMARLE CORPORATION HOUSTON PLANT,1003402,2500 N. SOUTH ST.,29.743111,-95.166694,PASADENA,HARRIS COUNTY,TX,77503,Albemarle Corporation (100%),25,C
2013,ALBEMARLE CORPORATION-SOUTH PLANT,1004307,2270 HWY 79 SOUTH OF MAGNOLIA,33.1756,-93.2169,MAGNOLIA,COLUMBIA COUNTY,AR,71753,ALBEMARLE CORP (100%),37,C
2013,ALCOA INC - WARRICK OPERATIONS,1001877,,37.915,-87.3328,NEWBURGH,WARRICK COUNTY,IN,47629,ALCOA INC (100%),17413,"C,D,F"
2013,ALCOA INTALCO WORKS,1003562,4050 MOUNTAIN VIEW RD.,48.8455,-122.7055,FERNDALE,WHATCOM COUNTY,WA,98248,ALCOA INC (100%),11351,"C,F,TT"
2013,ALCOA WENATCHEE LLC,1000635,6200 MALAGA HIGHWAY,47.3567,-120.1273,MALAGA,CHELAN COUNTY,WA,98828,ALCOA INC (100%),15,"C,F"
2013,ALCOA WORLD ALUMINA ATLANTIC,1003201,,28.65083,-96.56222,POINT COMFORT,CALHOUN COUNTY,TX,77978,ALCOA INC (60%); Alumina Ltd (40%),19276,"C,TT"
2013,ALCOA-MARYVILLE-BLOUNT COUNTY LANDFILL,1003147,240 Long Powers Road,35.73834,-84.05978,Friendsville,BLOUNT COUNTY,TN,37737,Blount County (40%); City of Alcoa (30%); City of Maryville (30%),44948,HH
2013,ALCON LABORATORIES,1003448,6201 SOUTH FREEWAY,32.65784,-97.32095,FORT WORTH,TARRANT COUNTY,TX,76134,"Alcon Laboratories, Inc. (100%)",15,C
2013,ALERIS ROLLED PRODUCTS INC,1006045,1372 STATE ROAD 1957,37.944444,-86.854167,LEWISPORT,HANCOCK,KY,42351,ALERIS INTERNATIONAL INC (100%),78,C
2013,ALL PURPOSE LANDFILL,1004335,5401 Lafayette Street,37.4135,-121.9724,SANTA CLARA,SANTA CLARA COUNTY,CA,95050,City of Santa Clara (100%),60013,HH
2013,ALLEGANY BALLISTICS LABORATORY,1005862,210 STATE ROUTE 956,39.560972,-78.843611,KEYSER,MINERAL COUNTY,WV,26726,Alliant Techsystems Operations LLC (100%),47,C
2013,"ALLEGHENY LUDLUM, BAGDAD FACILITY",1005006,585 SILICON DRIVE,40.64008,-79.61118,LEECHBURG,WESTMORELAND COUNTY,PA,15656,ALLEGHENY TECHNOLOGIES INC (100%),21,C
2013,ALLEN COUNTY PUBLIC WORKS,1007192,1170 2800TH ST,38.007907,-95.289343,LA HARPE,ALLEN,KS,66751,"Allen County, Kansas (100%)",51632,"C,HH"
2013,ALLIANCE COMPRESSOR STATION,1005887,12495 HWY 114,33.03425,-97.34692,JUSTIN,DENTON,TX,76247,CRESTWOOD MIDSTREAM PARTNERS LP (100%),8679,"C,W"
2013,ALLIANCE PIPELINE - OLIVIA 23-A,1005705,38884 870TH AVE,44.8491,-94.8969,BIRD ISLAND,RENVILLE COUNTY,MN,55310,ENBRIDGE INC (50%); VERESEN INC (50%),592,"C,W"
2013,ALLIANCE PIPELINE L.P. - MANCHESTER,1001559,1242 220TH STREET,42.4671,-91.5509,MANCHESTER,DELAWARE COUNTY,IA,52057,ENBRIDGE INC (50%); VERESEN INC (50%),240,"C,W"
2013,ALLIANCE PIPELINE LP,1001560,580 TAMPICO RD,41.59254,-89.78425,TAMPICO,WHITESIDE,IL,61283,ENRIDGE INC (50%); VERESEN INC (50%),226,"C,W"
2013,"ALLIANCE PIPELINE, L.P.-FAIRMOUNT COMPRESSOR STATION",1000245,17950 98TH ST SE,45.993367,-96.648999,FAIRMOUNT,RICHLAND,ND,58030,ENBRIDGE INC (50%); VERESEN INC (50%),250,"C,W"
2013,"ALLIANCE PIPELINE, L.P.-WIMBLEDON COMPRESSOR STATION",1001558,1540 98TH AVE SE,47.191058,-98.42561,WIMBLEDON,BARNES,ND,58492,ENBRIDGE INC (50%); VERESEN INC (50%),215,"C,W"
2013,ALLIANCE SANI LDFL,1007645,398 KEYSER AVENUE,41.3965,-75.7375,TAYLOR,LACKAWANNA COUNTY,PA,18517,"Waste Management, Inc. (100%)",37749,"C,HH"
2013,ALLIANT techsystems Operations LLC-LAKE CITY ARMY AMMUNITION PLANT,1001970,25201 East 78 Highway,39.103,-94.2783,INDEPENDENCE,JACKSON COUNTY,MO,64051,,19,C
2013,ALLIED IMPERIAL LANDFILL,1006197,104 EAST ROBINSON ROAD,32.85467,-115.52505,IMPERIAL,IMPERIAL COUNTY,CA,92251,"Republic Services, Inc. (100%)",10818,HH
2013,ALLISON COMPRESSOR STATION,1003246,16301 FM 1046,35.618663,-100.14948,Briscoe,WHEELER,TX,79011,"Enbridge Energy Partners, L.P. (100%)",13,C
2013,ALLISON GAS PLANT,1007496,16298 Co. Rd. EE,35.618663,-100.14948,Allison,WHEELER,TX,79003,"Enbridge Energy Partners, L.P. (100%)",1223,"C,W"
2013,"ALLISON TRANSMISSION, Inc.",1000048,One Allison Way,39.78039,-86.238893,INDIANAPOLIS,MARION COUNTY,IN,46222,"ALLISON TRANSMISSION, INC (100%)",15,C
2013,ALON REFINING KROTZ SPRINGS INC,1007622,356 S. LEVEE RD,30.526504,-91.748383,KROTZ SPRINGS,ST. LANDRY PARISH,LA,70750,"AlonUSA Energy, Inc. (100%)",2903,"C,MM,Y"
2013,ALPHA RIDGE LANDFILL,1007291,2350 MARRIOTTSVILLE ROAD,39.30718,-76.89862,MARRIOTTSVILLE,HOWARD COUNTY,MD,21104,"Howard County, Maryland (100%)",32200,"C,HH"
2013,ALTAMONT GAS PLANT,1004709,17790 WEST 3750 NORTH,40.35932,-110.28605,ALTAMONT,DUCHESNE,UT,84001,"Kinder Morgan Energy Partners, L.P. (100%)",3418,"C,NN,W"
2013,"ALTIVIA Petrochemicals, LLC - HAVERHILL COMPLEX",1007401,1019 HAVERHILL OHIO FURNACE ROAD,38.59167,-82.81944,HAVERHILL,SCIOTO COUNTY,OH,45636,"Haverhill Chemicals, LLC (100%)",17,C
2013,ALTON STEEL COMPANY,1003268,#5 CUT ST.,38.88321,-90.14503,ALTON,MADISON COUNTY,IL,62002,ALTON STEEL INC (100%),17,"C,Q"
2013,ALYESKA PIPELINE SE/TAPS PUMP STATION 01,1005184,,70.257222,-148.617778,PRUDHOE BAY,NORTH SLOPE,AK,99734,ALYESKA PIPELINE SERVICE CO (100%),45,C
2013,"ALYESKA PIPELINE SERVICE COMPANY, Valdez Marine Terminal",1005781,300 DAYVILLE ROAD,61.0861,-146.3889,VALDEZ,VALDEZ-CORDOVA CENSUS AREA,AK,99686,ALYESKA PIPELINE SERVICE CO (100%),41,C
2013,"AM/NS Calvert, LLC",1005491,1 AM/NS Way,31.148267,-87.979489,CALVERT,MOBILE COUNTY,AL,36513,THYSSENKRUPP STEEL USA LLC (100%),161,C
2013,AMALGAMATED SUGAR CO LLC,1005707,138 WEST KARCHER ROAD,43.612136,-116.579232,NAMPA,CANYON COUNTY,ID,83687,The Amalgamated Sugar Companuyy LLC (100%),87020,"C,S,TT"
2013,AMALGAMATED SUGAR CO LLC,1005712,2320 ORCHARD DR. E.,42.531995,-114.431448,TWIN FALLS,TWIN FALLS COUNTY,ID,83301,SNAKE RIVER SUGAR CO (100%),817,"C,S"
2013,AMALGAMATED SUGAR CO LLC,1006412,50 SOUTH 500 WEST,42.611671,-113.757423,PAUL,MINIDOKA,ID,83347,SNAKE RIVER SUGAR CO (100%),12185,"C,S,TT"
2013,AMEA Sylacauga Plant,1007178,125 THOMPSON LANE,33.1661,-86.2825,SYLACAUGA,Talladega,AL,35150,ALABAMA MUNICIPAL ELECTRIC AUTHORITY (100%),0,D
2013,AMERICAN ACRYL PASADENA,1004732,"4631 Old Hwy 146, Suite B",29.62132,-95.06676,PASADENA,HARRIS,TX,77507,"ARKEMA INC (50%); NA INDUSTRIES, INC (50%)",39,C
2013,AMERICAN AIRLINES,1005432,3800 NORTH MINGO ROAD,36.204822,-95.868808,TULSA,TULSA,OK,74116,AMR Corporation (100%),23,C
2013,AMERICAN AVENUE LANDFILL,1004417,18950 W AMERICAN AVENUE,36.6659,-120.1382,KERMAN,FRESNO COUNTY,CA,93630,County of Fresno (100%),55525,"C,HH"
2013,AMERICAN CAST IRON PIPE CO,1005327,2930 NORTH 16TH STREET,33.54698,-86.83465,BIRMINGHAM,JEFFERSON COUNTY,AL,35207,American Cast Iron Pipe Company (100%),212,C
2013,"AMERICAN CEMENT COMPANY, LLC",1003883,4750 EAST COUNTY ROAD 470,28.760864,-82.025353,SUMTERVILLE,SUMTER COUNTY,FL,33585,"Oldcastle Materials, Inc. (50%); Natural Resources of Central Florida, Inc. (40%); CJM of Florida, LLC (10%)",574,H
2013,AMERICAN COLLOID,1008041,692 US HIGHWAY 212,44.6835,-103.85716,BELLE FOURCHE,BUTTE,SD,57717,AMCOL International (100%),170,C
2013,AMERICAN CRYSTAL SUGAR - CROOKSTON,1006354,1201 Hwy 75 South,47.764444,-96.6325,CROOKSTON,POLK COUNTY,MN,56716,AMERICAN CRYSTAL SUGAR CO (100%),82241,"C,S,TT"
2013,AMERICAN CRYSTAL SUGAR - E GRAND FORKS,1005751,1020 Business Hwy 2,47.925833,-97.006111,EAST GRAND FORKS,POLK,MN,56721,AMERICAN CRYSTAL SUGAR CO (100%),126241,"C,S,TT"
2013,AMERICAN CRYSTAL SUGAR - HILLSBORO,1005753,121 Highway 81 NE,47.435833,-97.0625,HILLSBORO,TRAILL,ND,58045,AMERICAN CRYSTAL SUGAR CO (100%),92784,"C,S,TT"
2013,AMERICAN CRYSTAL SUGAR - MOORHEAD,1006877,2500 NORTH 11TH STREET,46.903056,-96.759722,MOORHEAD,CLAY COUNTY,MN,56560,AMERICAN CRYSTAL SUGAR CO (100%),105849,"C,S,TT"
2013,AMERICAN ENVIRONMENTAL LANDFILL,1002552,212 N. 177TH W. AVENUE,36.163345,-96.188988,SAND SPRINGS,OSAGE COUNTY,OK,74063,AMERICAN ENVIRONMENTAL LANDFILL INC (100%),96308,"C,HH"
2013,AMERICAN FUJI SEAL INC,1007095,1051 BLOOMFIELD RD,37.824771,-85.43001,BARDSTOWN,NELSON COUNTY,KY,40004,"American Fuji Seal, Inc. (100%)",2,C
2013,AMERICAN GYPSUM CO /GYPSUM WALLBOARD PLT,1005175,0.25 MILES W OF,34.654167,-99.594722,DUKE,JACKSON COUNTY,OK,73532,EAGLE MATERIALS INC (100%),32,C
2013,AMERICAN GYPSUM COMPANY,1004845,4600 Paseo Del Norte NE,35.17237,-106.59347,ALBUQUERQUE,BERNALILLO COUNTY,NM,87113,EAGLE MATERIALS INC (100%),18,C
2013,AMERICAN GYPSUM COMPANY,1007404,740 Highway #6,39.658889,-106.956111,GYPSUM,EAGLE,CO,81637,EAGLE MATERIALS INC (100%),25,C
2013,AMERICAN PROTEINS INCORPORATED HANCEVILLE DIVISION,1007030,1170 COUNTY RD. 508,33.955694,-86.815268,HANCEVILLE,CULLMAN COUNTY,AL,35077,AMERICAN PROTEINS INC (100%),47,C
2013,AMERICAN REFINING GROUP INC,1005590,77 NORTH KENDALL AVENUE,41.965472,-78.633108,BRADFORD,MCKEAN COUNTY,PA,16701,AMERICAN REFINING GROUP (100%),1199,"C,MM,Y"
2013,AMERICAN SUGAR REFINING INC - Chalmette Refinery,1001860,7417 N PETERS ST,29.94326,-90.002848,ARABI,SAINT BERNARD,LA,70032,AMERICAN SUGAR REFINING INC (100%),55,C
2013,AMERICAN SYNTHETIC RUBBER,1006919,4500 CAMPGROUND ROAD,38.209317,-85.847511,LOUISVILLE,JEFFERSON COUNTY,KY,40216,"MICHELIN NORTH AMERICA, INC (100%)",604,C
2013,AMERICAS STYRENICS LLC - ST JAMES PLANT,1001962,9901 HWY 18,30.08013,-90.916,ST. JAMES,ST. JAMES PARISH,LA,70086,"Chevron Phillips Chemical Company, LLC (50%); STYRON LLC (50%)",513,C
2013,AMGEN INC,1005413,1 AMGEN CENTER DRIVE M/S 25-1-A,34.19175,-118.91969,THOUSAND OAKS,VENTURA COUNTY,CA,91320,AMGEN INC (100%),11,C
2013,"AMGEN MANUFACTURING, LIMITED",1005072,RD 31 KM 24.6,18.235793,-65.904429,JUNCOS,JUNCOS,PR,777,AMGEN INC (100%),28,C
2013,AMP Fremont Energy Center,1008730,1275 Miarer Rd,41.3771,-83.1615,Fremont,SANDUSKY COUNTY,OH,43420,AMERICAN MUNICIPAL POWER (100%),482,D
2013,ANCHOR ACQUISITION LLC MONACA PLT,1006810,400 9TH STREET,40.690066,-80.274784,MONACA,BEAVER,PA,15061,Everyware Global (100%),14,"C,N"
2013,ANCHOR HOCKING GLASS CO PLANT NO 1 *,1004508,1115 WEST FIFTH AVENUE,39.71923,-82.61895,LANCASTER,FAIRFIELD COUNTY,OH,43130,Everyware Global (100%),56,"C,N"
2013,ANCHORAGE REGIONAL LANDFILL,1007341,15500 E. EAGLE RIVER LOOP RD,61.290401,-149.604757,EAGLE RIVER,ANCHORAGE MUNICIPALITY,AK,99577,Municipality of Anchorage - Solid Waste Services (100%),439833,"C,HH"
2013,ANDECTOR BOOSTER STATION,1002416,,32.0414,-102.6808,GOLDSMITH,ECTOR,TX,79741,Phillips 66 (50%); SPECTRA ENERGY CORP (50%),14,C
2013,ANDERSON DEVELOPMENT COMPANY,1004275,525 GULF STREET,41.891389,-84.0175,ADRIAN,LENAWEE,MI,49221,"MITSUI CHEMICALS AMERICA, INC. (100%)",1,"C,L,OO"
2013,ANDERSON LANDFILL,1007839,18703 CAMBRIDGE ROAD,40.41754,-122.35787,ANDERSON,SHASTA COUNTY,CA,96007,"Waste Management, Inc. (100%)",39505,HH
2013,ANDERSONS ALBION ETHANOL LLC,1007933,26250 B DR N,42.259646,-84.789726,ALBION,CALHOUN,MI,49224,"THE ANDERSONS, INC (53.08%); Marathon Renewable Fuels  (42.94%); Home Grown Fuels (3.98%)",161,"C,II,PP"
2013,ANDERSONS CLYMERS ETHANOL LLC,1005969,3389 WEST CR 300 SOUTH,40.719022,-86.435982,LOGANSPORT,CASS COUNTY,IN,46947,"Marathon Renewable Fuels (60.01%); THE ANDERSONS, INC (38.18%); Chicago River Marketing LLC (1.81%)",110,"C,II"
2013,ANDERSONS DENISON ETHANOL LLC,1007565,2404 W HWY 30,41.98905,-95.39912,DENISON,CRAWFORD COUNTY,IA,51442,The Andersons Inc (84.9%); Central States (15.1%),209,"C,II"
2013,ANDERSONS MARATHON ETHANOL LLC,1000035,5728 E SEBRING WARNER RD,40.081111,-84.591667,GREENVILLE,DARKE,OH,45331,"THE ANDERSONS, INC (50%); Marathon Renewable Fuels Corporation (25%); Marathon Renewable Fuels LLC (25%)",205,"C,II,PP"
2013,ANGELINA COUNTY WASTE MANAGEMENT CENTER,1005392,7521 FM 58,31.2525,-94.695,LUFKIN,ANGELINA COUNTY,TX,75901,Angelina County (100%),76327,HH
2013,ANGUS CHEMICAL CO,1002263,350 LOUISIANA HIGHWAY 2,32.6907,-92.0826,STERLINGTON,OUACHITA PARISH,LA,71280,THE DOW CHEMICAL CO (100%),37,"C,V"
2013,ANHEUSER BUSCH BALDWINSVILLE BREWERY,1002576,2885 BELGIUM ROAD,43.1691,-76.3112,BALDWINSVILLE,ONONDAGA COUNTY,NY,13027,"Anheuser-Busch Companies, LLC (100%)",29,"C,PP"
2013,ANHEUSER BUSCH INC,1006111,700 SCHROCK ROAD,40.103056,-82.993056,COLUMBUS,FRANKLIN COUNTY,OH,43229,ANHEUSER-BUSCH INBEV (100%),27,"C,PP"
2013,ANHEUSER BUSCH INC. - L.A. BREWERY,1002867,15800 ROSCOE BOULEVARD,34.22132,-118.48044,VAN NUYS,LOS ANGELES COUNTY,CA,91406,"Anheuser-Busch, InBev (100%)",29,"C,PP"
2013,ANHEUSER BUSCH INCORPORATED FORT COLLINS BREWERY,1003352,2351 BUSCH DRIVE,40.619722,-105.006111,FORT COLLINS,LARIMER,CO,80524,Anheuser-Busch (100%),26,"C,PP"
2013,ANHEUSER BUSCH LLC,1002734,3101 BUSCH DRIVE,38.23906,-122.09023,FAIRFIELD,SOLANO COUNTY,CA,94534,ANHEUSER-BUSCH INBEV (100%),25,C
2013,ANHEUSER BUSCH LLC,1003176,7801 POCAHONTAS TRAIL,37.237518,-76.652662,WILLIAMSBURG,JAMES CITY COUNTY,VA,23185,ANHEUSER-BUSCH INBEV (100%),22,C
2013,ANHEUSER-BUSCH HOUSTON BREWERY,1003224,775 GELLHORN DRIVE,29.774444,-95.270833,HOUSTON,HARRIS,TX,77029,ANHEUSER-BUSCH INBEV (100%),108,C
2013,ANHEUSER-BUSCH LLC,1006147,111 BUSCH DR.,30.433075,-81.647505,JACKSONVILLE,DUVAL COUNTY,FL,32218,ANHEUSER-BUSCH INBEV (100%),36,C
2013,ANHEUSER-BUSCH LLC,1002915,221 DANIEL WEBSTER HIGHWAY,42.82407,-71.485564,MERRIMACK,HILLSBOROUGH,NH,3054,"Anheuser-Busch Companies, LLC (100%)",10,"C,PP"
2013,"ANHEUSER-BUSCH, INC. CARTERSVI LLE BREWERY",1006904,100 BUSCH DR.,34.25768,-84.78162,CARTERSVILLE,BARTOW COUNTY,GA,30120,ANHEUSER-BUSCH INBEV (100%),20,C
2013,"ANHEUSER-BUSCH, INC. NEWARK BREWERY",1003525,200 US HIGHWAY ONE,40.690817,-74.191659,NEWARK,ESSEX COUNTY,NJ,7114,Anheuser-Busch InBev (100%),18,"C,PP"
2013,ANIMAS POWER PLANT,1005490,501 MCCORMICK SCHOOL ROAD,36.72488,-108.19144,FARMINGTON,SAN JUAN COUNTY,NM,87401,City of Farmington (100%),36,C
2013,ANN ARBOR SLF PHASE I & II,1006178,4150 PLATT RD,42.22703,-83.69976,ANN ARBOR,WASHTENAW COUNTY,MI,48108,City of Ann Arbor (municipally owned) (100%),47652,HH
2013,"ANP Bellingham Energy Company, LLC",1006864,155 MAPLE ST,42.1113,-71.4529,BELLINGHAM,Norfolk,MA,2019,"GDF SUEZ Energy Generation NA, Inc. (100%)",374,"C,D"
2013,"ANP Blackstone Energy Company, LLC",1006657,204 ELM ST,42.0575,-71.5172,BLACKSTONE,Worcester,MA,1504,"GDF SUEZ Energy Generation NA, Inc. (100%)",343,"C,D"
2013,ANR Pipeline Alden CS,1004929,2135 11th Road,38.214341,-98.289215,ALDEN,RICE,KS,67512,ANR Pipeline Company (100%),10221,"C,W"
2013,ANR Pipeline Birmingham CS,1004926,2795 LOCUST AVE,40.901819,-91.967609,BIRMINGHAM,VAN BUREN,IA,52535,ANR Pipeline Company (100%),16586,"C,W"
2013,ANR Pipeline Blue Lake Complex Gas Storage Facility,1005958,10000 PFLUM RD NE,44.84469,-84.96916,MANCELONA,KALKASKA,MI,49659,ANR Pipeline Company (100%),3139,"C,W"
2013,ANR Pipeline Bridgman CS,1004928,3372 BROWNTOWN RD,41.897126,-86.534271,BRIDGMAN,BERRIEN COUNTY,MI,49106,ANR Pipeline Company (100%),11794,"C,W"
2013,ANR Pipeline Brownsville CS,1005235,70 Pumping Station Road,35.44545,-89.28553,Brownsville,HAYWOOD,TN,38012,ANR Pipeline Company (100%),4405,"C,W"
2013,ANR Pipeline Celestine CS,1005245,146 S. Celestine South,38.377528,-86.777306,Celestine,DUBOIS COUNTY,IN,47521,ANR Pipeline Company (100%),13429,"C,W"
2013,ANR Pipeline Cottage Grove CS,1009589,7845 Highway 140 N,36.390381,-88.481323,Cottage Grove,HENRY,TN,38224,ANR Pipeline Company (100%),10191,"C,W"
2013,ANR Pipeline Defiance CS,1007403,6357 State Route 66 N,41.349885,-84.359487,Defiance,DEFIANCE COUNTY,OH,43512,ANR Pipeline Company (100%),12204,"C,W"
2013,ANR Pipeline Delhi CS,1011138,1894 Highway 80,32.465897,-91.604473,Delhi,RICHLAND PARISH,LA,71232,ANR Pipeline Company (100%),53780,"C,W"
2013,ANR Pipeline E.G. Hill CS,1004932,15175 County Road,36.494444,-101.469444,GRUVER,HANSFORD,TX,79040,ANR Pipeline Company (100%),8916,"C,W"
2013,ANR Pipeline Enterprise CS,1004930,1615 NAIL ROAD,38.819723,-97.093625,ENTERPRISE,DICKINSON,KS,67441,ANR Pipeline Company (100%),5973,"C,W"
2013,ANR Pipeline Greensburg CS,1004776,,37.61422,-99.396874,GREENSBURG,KIOWA,KS,67054,ANR Pipeline Company (100%),6272,"C,W"
2013,ANR Pipeline Greenville CS,1005238,1336 South Raceway Road,33.372167,-91.00575,Greenville,WASHINGTON COUNTY,MS,38703,ANR Pipeline Company (100%),5889,"C,W"
2013,ANR Pipeline Hamilton CS,1004923,4193 134TH AVENUE,42.66621,-85.95642,HAMILTON,ALLEGAN,MI,49419,ANR Pipeline Company (100%),2422,"C,W"
2013,ANR Pipeline Havensville CS,1004935,19955 ENGLISH RIDGE RD,39.49188,-96.04486,HAVENSVILLE,POTTAWATOMIE COUNTY,KS,66432,ANR Pipeline Company (100%),1493,"C,W"
2013,ANR Pipeline Lincoln Gas Storage Facility,1005067,3991 HICKORY RD,43.942122,-84.93902,LAKE GEORGE,CLARE,MI,48633,ANR Pipeline Company (100%),3209,"C,W"
2013,ANR Pipeline Lineville CS,1005953,2868 15TH STREET,40.630044,-93.540108,LINEVILLE,WAYNE COUNTY,IA,50147,ANR Pipeline Company (100%),12676,"C,W"
2013,ANR Pipeline Madisonville CS,1005242,7500 Nebo Road,37.3823,-87.6177,Madisonville,HOPKINS COUNTY,KY,77002,ANR Pipeline Company (100%),12923,"C,W"
2013,ANR Pipeline Maitland CS,1005060,33854 COUNTY HIGHWAY TT,40.175383,-95.122361,MAITLAND,HOLT,MO,64466,ANR Pipeline Company (100%),33021,"C,W"
2013,ANR Pipeline Meade CS,1009733,28111 11 Road,37.078655,-100.47068,Meade,MEADE,KS,67864,ANR Pipeline Company (100%),8104,"C,W"
2013,ANR Pipeline Mooreland CS,1009608,14070 US Highway 412,36.473972,-99.145615,Mooreland,WOODWARD COUNTY,OK,73852,ANR Pipeline Company (100%),2607,"C,W"
2013,ANR Pipeline New Windsor CS,1004769,296 NORTH 600 AVE,41.21009,-90.43646,NEW WINDSOR,MERCER,IL,61465,ANR Pipeline Company (100%),14893,"C,W"
2013,ANR Pipeline Patterson CS,1005243,3609 Highway 90,29.691875,-91.342885,PATTERSON,SAINT MARY,LA,70392,ANR Pipeline Company (100%),5678,"C,W"
2013,ANR Pipeline Portland CS,1009590,6059 W State Road 26,40.44464,-85.09691,Portland,JAY COUNTY,IN,47371,ANR Pipeline Company (100%),13717,"C,W"
2013,ANR Pipeline Sandwich CS,1004937,6650 SANDY BLUFF RD,41.6227,-88.58362,SANDWICH,KENDALL COUNTY,IL,60548,ANR Pipeline Company (100%),6942,"C,W"
2013,ANR Pipeline Sardis CS,1005244,2099 Holly Grove Road,34.423067,-90.125564,Sardis,PANOLA COUNTY,MS,38666,ANR Pipeline Company (100%),4245,"C,W"
2013,ANR Pipeline Shelbyville CS,1005236,5500 Smithland Road,39.439972,-85.876694,Shelbyville,SHELBY,IN,46176,ANR Pipeline Company (100%),17347,"C,W"
2013,ANR Pipeline St. John CS,1004925,10313 WHITE OAK AVE,41.431667,-87.488972,ST JOHN,LAKE,IN,46373,ANR Pipeline Company (100%),10208,"C,W"
2013,ANR Pipeline Woodstock CS,1011137,15313 West South Street Road,42.288284,-88.494903,Woodstock,MCHENRY COUNTY,IL,60098,ANR Pipeline Company (100%),7480,"C,W"
2013,ANR Pipeline Woolfolk CS,1004933,11039 150TH AVENUE,43.6249,-85.3844,BIG RAPIDS,MECOSTA,MI,49307,ANR Pipeline Company (100%),11141,"C,W"
2013,ANSHUTZ RANCH EAST GAS PLANT,1004802,20 MILES SOUTHWEST OF EVANSTON,41.067222,-111.040833,EVANSTON,UINTA,WY,82930,"MERIT ENERGY CO, LLC (100%)",4919,"C,W"
2013,ANTELOPE RIDGE GAS PLANT,1008332,,32.2995,-103.4539,JAL,LEA,NM,88252,Phillips 66 (50%); SPECTRA ENERGY CORP (50%),1879,"C,W"
2013,ANTELOPE VALLEY RECYCLING AND DISPOSAL FACILITY,1007710,1200 WEST CITY RANCH ROAD,34.56786,-118.13934,PALMDALE,LOS ANGELES,CA,93551,"Waste Management, Inc. (100%)",32904,"C,HH"
2013,APACHE JUNCTION LANDFILL,1004003,4050 SOUTH TOMAHAWK RD,33.377246,-111.528771,APACHE JUNCTION,PINAL COUNTY,AZ,85219,"Republic Services, Inc. (100%)",169138,HH
2013,APACHE NITROGEN PRODUCTS - PLANT,1001908,1436 SOUTH APACHE POWDER ROAD,31.88,-110.24,St. David,COCHISE COUNTY,AZ,85630,FREEPORT MCMORAN COPPER & GOLD (50%); SOUTHWEST ENERGY (50%),11,"C,V"
2013,"APEX ENVIRONMENTAL, LLC - SANITARY LANDFILL (0641000223)",1006777,11 COUNTY ROAD 78,40.432403,-80.911512,AMSTERDAM,JEFFERSON COUNTY,OH,43903,"ENVIRONMENTAL LOGISTICS SERVICES, LLC (100%)",414891,"C,HH"
2013,APEX REGIONAL LANDFILL,1004352,13550 US HIGHWAY 93 NORTH,36.29423,-115.28183,LAS VEGAS,CLARK,NV,89165,"Republic Services, Inc. (100%)",184336,"C,HH"
2013,APPLEBY TREATER,1010353,,31.6912,-94.5833,Appleby,NACOGDOCHES,TX,75965,"ENERGY TRANSFER PARTNERS, LP (100%)",3850,"C,W"
2013,APPLETON ROARING SPRING PAPER MFG,1005669,100 PAPER MILL RD.,40.33873,-78.405175,ROARING SPRING,BLAIR COUNTY,PA,16673,"Appvion, Inc. (100%)",2171,"AA,C"
2013,APPVION - APPLETON PLT,1002596,825 E WISCONSIN AVE,44.2729,-88.39364,APPLETON,OUTAGAMIE COUNTY,WI,54911,APPLETON PAPERS INC (100%),19,C
2013,"APPVION, INC. WEST CARROLLTON",1002434,1030 WEST ALEX BELL ROAD,39.652127,-84.186718,WEST CARROLLTON,MONTGOMERY COUNTY,OH,45449,"APPVION, INC. (100%)",8,C
2013,APS Saguaro Power Plant,1001423,MAIL POST 228,32.5517,-111.3,RED ROCK,Pinal,AZ,85245,PINNACLE WEST CAPITAL CORP (100%),7,"C,D"
2013,APS West Phoenix Power Plant,1001422,4606 WEST HADLEY,33.4417,-112.1583,PHOENIX,Maricopa,AZ,85043,PINNACLE WEST CAPITAL CORP (100%),364,"C,D"
2013,ARCELORMITTAL BURNS HARBOR LLC,1003962,250 W US 12,41.627864,-87.143816,BURNS HARBOR,PORTER COUNTY,IN,46304,ARCELORMITTAL USA INC (100%),585,"C,Q"
2013,ARCELORMITTAL PLATE LLC,1003668,139 MODENA RD,39.98301,-75.82791,COATESVILLE,CHESTER COUNTY,PA,19320,ArcelorMittal USA LLC (100%),61,"C,Q"
2013,ARCELORMITTAL PLATE LLC/CONSHOHOCKEN PLT,1003523,900 CONSHOHOCKEN RD,40.090954,-75.31707,CONSHOHOCKEN,MONTGOMERY COUNTY,PA,19428,ArcelorMittal USA LLC (100%),30,C
2013,ARCELORMITTAL RIVERDALE LLC,1006325,13500 S PERRY AVE,41.656474,-87.625847,RIVERDALE,COOK COUNTY,IL,60827,ArcelorMittal USA LLC (100%),26,"C,Q"
2013,ARCELORMITTAL STEELTON LLC/STEELTON,1004215,215 S FRONT ST,40.23258,-76.83645,STEELTON,DAUPHIN COUNTY,PA,17113,ArcelorMittal USA LLC (100%),49,"C,Q"
2013,ARCELORMITTAL TUBULAR PRODUCTS SHELBY LLC,1005385,132-140 W MAIN ST,40.88135,-82.66758,SHELBY,RICHLAND COUNTY,OH,44875,Dofasco Holdings LLC.  (100%),30,C
2013,ARCELORMITTAL WARREN  (0278000648),1003380,2234 MAIN AVE SW,41.211242,-80.81682,WARREN,TRUMBULL COUNTY,OH,44481,ArcelorMittal USA LLC (100%),56,"C,Q"
2013,ARCHER DANIEL MIDLAND COMPANY,1002916,3000 E 8TH STREET,41.42139,-97.288612,COLUMBUS,PLATTE,NE,68601,ARCHER DANIELS MIDLAND CO (100%),8247,"C,II"
2013,ARCHER DANIELS MIDLAND,1003215,2191 W CR 0 NS,40.2853,-86.5479,FRANKFORT,CLINTON COUNTY,IN,46041,ARCHER DANIELS MIDLAND CO (100%),26,C
2013,ARCHER DANIELS MIDLAND,1001945,400 WEST ERIE ROAD,44.474067,-95.783679,MARSHALL,LYON COUNTY,MN,56258,ARCHER DANIELS MIDLAND CO (100%),632,"C,II,PP"
2013,ARCHER DANIELS MIDLAND COMPANY,1005935,7800 THAYER STREET,40.86667,-96.619116,LINCOLN,LANCASTER COUNTY,NE,68507,ARCHER DANIELS MIDLAND CO (100%),392,C
2013,ARCHER DANIELS MIDLAND PROCESSING,1005940,1388 HIGHWAY 97,48.062189,-100.924361,VELVA,MCHENRY COUNTY,ND,58790,ARCHER DANIELS MIDLAND CO (100%),17,C
2013,ARCONIC INC - TENNESSEE OPERATIONS,1002795,2300 N WRIGHT RD,35.811815,-83.969576,ALCOA,BLOUNT COUNTY,TN,37701,Alcoa Inc. (100%),93,C
2013,ARCONIC INC DAVENPORT WORKS,1007937,4879 STATE STREET,41.53115,-90.4682,BETTENDORF,SCOTT COUNTY,IA,52722,ALCOA INC (100%),104,C
2013,ARCONIC INC MASSENA OPERATIONS,1002483,45 COUNTY ROUTE 42,44.950425,-74.893685,MASSENA,SAINT LAWRENCE,NY,13662,ALCOA INC (100%),10010,"C,F,TT"
2013,ARCONIC INC. - LAFAYETTE OPERATIONS,1004649,3131 E MAIN ST,40.401861,-86.866139,LAFAYETTE,TIPPECANOE,IN,47905,ALCOA INC (100%),25,C
2013,ARDEN LDFL,1003456,200 Rangos Lane,40.208427,-80.264771,WASHINGTON,WASHINGTON,PA,15301,"Waste Management, Inc. (100%)",23940,"C,HH"
2013,ARGOS CEMENT LLC. - ROBERTA PLANT,1006659,8039 HIGHWAY 25,33.1043,-86.7985,CALERA,SHELBY COUNTY,AL,35040,Argos USA (100%),1098,"C,H"
2013,ARGOS USA -Martinsburg,1007566,1826 SOUTH QUEEN STREET,39.434879,-77.977911,MARTINSBURG,BERKELEY COUNTY,WV,25401,Essroc Italcementi Group (100%),1191,"C,H"
2013,ARIZONA CHEMICAL COMPANY,1002442,"2 EVERITT AVE., S. END",30.143939,-85.618924,PANAMA CITY,BAY COUNTY,FL,32401,ARIZONA CHEMICAL CO LLC (100%),35,C
2013,ARIZONA STATE UNIVERSITY,1006199,"300 E. University Drive, Suite 320",33.42195,-111.935,TEMPE,MARICOPA,AZ,85281,ARIZONA BOARD OF REGENTS FOR AND ON BEHALF OF ARIZONA STATE UNIVERSITY (100%),23,C
2013,ARK STEEL ASSOCIATES,1005801,2803 VAN DYKE ROAD,35.648518,-91.244662,NEWPORT,JACKSON COUNTY,AR,72112,"ARKANSAS STEEL ASSOCIATES, LLC (100%)",17,"C,Q"
2013,ARKALON ETHANOL LLC,1006203,8664 RD P,37.107705,-100.796294,LIBERAL,SEWARD,KS,67901,CONESTOGA ENERGY PARTNERS LLC (100%),135,"C,II,PP"
2013,ARKANSAS LIME COMPANY,1002209,600 LIMEDALE ROAD,35.794009,-91.718918,BATESVILLE,INDEPENDENCE COUNTY,AR,72501,US LIME & MINERALS INC (100%),172,"C,S"
2013,ARKEMA BEAUMONT PLANT,1006644,2810 GULF STATES ROAD,30.060226,-94.058976,BEAUMONT,JEFFERSON,TX,77701,Arkema Inc. (100%),65,C
2013,ARKEMA INC CLEAR LAKE,1006797,9502 BAYPORT BLVD STE B,29.624369,-95.062877,PASADENA,HARRIS COUNTY,TX,77507,Arkema Inc.  (100%),30,C
2013,"ARKEMA, INC.",1005721,4444 INDUSTRIAL PARKWAY,37.04902,-88.3692,CALVERT CITY,MARSHALL COUNTY,KY,42029,ARKEMA DELAWARE INC (100%),31,"C,L,OO"
2013,ARMSTRONG CEMENT & SUPPLY,1006785,100 CLEARFIELD ROAD,40.7948,-79.70017,CABOT,BUTLER COUNTY,PA,16023,"Snyder Associated Companies, Inc. (100%)",347,"C,H"
2013,ARMSTRONG WORLD IND MARIETTA CEILING PLT,1003208,1507 RIVER ROAD,40.0586,-76.58845,MARIETTA,LANCASTER COUNTY,PA,17547,ARMSTRONG WORLD INDUSTRIES INC (100%),35,C
2013,ARMSTRONG WORLD INDUSTRIES INC.,1002968,300 SOUTH MYRICK ST,30.408671,-87.250165,PENSACOLA,ESCAMBIA COUNTY,FL,32505,ARMSTRONG WORLD INDUSTRIES INC (100%),16,C
2013,"ARMSTRONG WORLD INDUSTRIES, INC.",1003235,1645 RAILROAD AVENUE,45.844165,-122.817421,SAINT HELENS,COLUMBIA COUNTY,OR,97051,ARMSTRONG WORLD INDUSTRIES INC (100%),10,C
2013,ARTESIA GAS PLANT,1002515,,32.7564,-104.2111,ARTESIA,EDDY COUNTY,NM,88210,Phillips 66 (50%); SPECTRA ENERGY CORP (50%),10400,"C,PP,UU,W"
2013,ASARCO LLC AMARILLO COPPER REFINERY,1002494,7001 NORTH HIGHWAY 136,35.284533,-101.730042,AMARILLO,POTTER COUNTY,TX,79108,AMERICAS MINING CORP (100%),29,C
2013,ASARCO LLC Hayden Operations,1002486,100 Hayden Avenue,33.001796,-110.777946,Hayden,GILA COUNTY,AZ,85135,AMERICAS MINING CORP (100%),25,C
2013,ASCEND PERFORMANCE MATERIALS CHOCOLATE BAYOU FACILITY,1002190,,29.2567,-95.2144,ALVIN,BRAZORIA COUNTY,TX,77512,"Ascend Performance Materials Texas, Inc. (100%)",116,"C,X"
2013,ASCEND PERFORMANCE MATERIALS OPERATIONS LLC,1003975,1515 HWY 246 S,34.2306,-82.05776,GREENWOOD,GREENWOOD COUNTY,SC,29646,Ascend Performance Materials LLC (100%),23,C
2013,ASH GROVE CEMENT CO-CHANUTE PLANT,1002665,1801 NORTH SANTA FE STREET,37.698786,-95.459748,CHANUTE,NEOSHO COUNTY,KS,66720,ASH GROVE CEMENT CO (100%),388,"C,H"
2013,ASH GROVE CEMENT COMPANY,1002421,900 GIFCO ROAD,32.51993,-97.0068,MIDLOTHIAN,ELLIS,TX,76065,ASH GROVE CEMENT CO (100%),1605,"C,H"
2013,ASH GROVE CEMENT COMPANY-DURKEE,1002527,33060 SHIRTTAIL CREEK ROAD,44.5428,-117.4218,DURKEE,BAKER COUNTY,OR,97905,ASH GROVE CEMENT CO (100%),543,"C,H"
2013,ASH GROVE CEMENT COMPANY-Louisville,1007552,16215 HWY. 50,41.005565,-96.154917,LOUISVILLE,CASS COUNTY,NE,68037,ASH GROVE CEMENT CO (100%),759,"C,H"
2013,ASH GROVE CEMENT COMPANY-MONTANA CITY,1002531,100 HIGHWAY 518,46.54448,-111.92062,CLANCY,JEFFERSON COUNTY,MT,59634,ASH GROVE CEMENT CO (100%),460,"C,H"
2013,ASH GROVE CEMENT COMPANY-SEATTLE,1002537,3801 EAST MARGINAL WAY SOUTH,47.56799,-122.34255,SEATTLE,KING COUNTY,WA,98134,ASH GROVE CEMENT CO (100%),294,H
2013,ASH GROVE CEMENT-FOREMAN,1007606,4343 HWY 108,33.6953,-94.423,Foreman,LITTLE RIVER COUNTY,AR,71836,Ash Grove Cement Company (100%),390,"C,H"
2013,ASHLAND #2 CMPSR STA,1002479,15718 STATE HIGHWAY 31,34.735908,-96.106025,Coalgate,COAL,OK,74538,"ENABLE MIDSTREAM PARTNERS, LP (100%)",13,C
2013,ASHLEY Energy LLC,1003496,1 ASHLEY STREET,38.63639,-90.18108,SAINT LOUIS,SAINT LOUIS CITY,MO,63102,"Veolia Environnment North America Operations, Inc. (100%)",32,C
2013,ASTORIA ENERGY LLC & ASTORIA ENERGY II LLC,1004576,17-10 STEINWAY ST,40.7825,-73.8964,ASTORIA,QUEENS COUNTY,NY,11105,GDF SUEZ ENERGY NORTH AMERICA INC (100%),1064,D
2013,ATASCOCITA RECYCLING AND DISPOSAL FACILITY,1007800,3623 WILSON ROAD,29.95135,-95.24966,HUMBLE,HARRIS COUNTY,TX,77396,"Waste Management, Inc. (100%)",181533,HH
2013,ATHENS & CLARKE COUNTIES-DUNLAP ROAD LF,1006056,5700 LEXINGTON RD,33.9257,-83.2634,WINTERVILLE,CLARKE COUNTY,GA,30683,Athens-Clarke County Unified Government (100%),68631,HH
2013,ATI Allvac - Monroe,1006778,2020 ASHCRAFT AVENUE,34.98548,-80.517139,MONROE,UNION,NC,28110,ALLEGHENY TECHNOLOGIES INC (100%),28,C
2013,ATI LADISH LLC,1005442,5481 S PACKARD AVE,42.947167,-87.8615,CUDAHY,MILWAUKEE COUNTY,WI,53110,ATI LADISH LLC (100%),28,C
2013,ATK Launch Systems Inc,1002571,9160 North Highway 83,41.663,-112.432,Promontory,BOX ELDER COUNTY,UT,84307,ALLIANT TECHSYSTEMS INC (100%),23,C
2013,ATK Launch Systems Inc,1002570,5000 SOUTH 8400 WEST,40.668325,-112.091908,MAGNA,SALT LAKE COUNTY,UT,84044,ALLIANT TECHSYSTEMS INC (100%),14,C
2013,"ATLANTIC COFFEE INDUSTRIAL SOLUTIONS, LLC",1003772,3900 HARRISBURG BLVD.,29.7458,-95.3375,HOUSTON,HARRIS,TX,77003,"MAXIMUS COFFEE GROUP, LLC (100%)",72,C
2013,ATLANTIC COUNTY LANDFILL,1001858,6700 Delilah Road,39.41653,-74.54036,EGG HARBOR TOWNSHIP,ATLANTIC COUNTY,NJ,8234,Atlantic County Utilities Authority (100%),52244,"C,HH"
2013,ATLANTIC WASTE DISPOSAL INC - SUSSEX COUNTY LAND,1003826,3474 ATLANTIC LN,37.061279,-77.177106,WAVERLY,SUSSEX,VA,23890,"Waste Management, Inc. (100%)",212703,"C,HH"
2013,AUBURN SANITARY LANDFILL NO 2,1003034,311 NORTH DIVISION STREET,42.951487,-76.586758,AUBURN,CAYUGA,NY,13021,City of Auburn (100%),7053,"C,HH"
2013,AUDUBON METALS LLC,1005000,3055 OHIO DR.,37.80603,-87.63308,HENDERSON,HENDERSON COUNTY,KY,42420,"KOCH ENTERPRISES, INC (100%)",21,C
2013,AUGUSTA COUNTY SVC AUTHORITY LANDFILL,1006344,749 Christians Creek Road,38.0781,-79.0635,STAUNTON,AUGUSTA COUNTY,VA,24401,County of Augusta (51.44%); City of Staunton (27.46%); City of Waynesboro (21.1%),98221,"C,HH"
2013,AUSTIN UTILITIES NORTHEAST POWER STATION,1005945,3511 11TH ST. N.E.,43.7014,-92.9626,AUSTIN,MOWER COUNTY,MN,55912,City of Austin Minnesota (100%),1,"C,D"
2013,AUSTIN WHITE LIME COMPANY MCNEIL PLANT & QUARRY,1007346,14001 MCNEIL ROAD,30.45407,-97.72091,AUSTIN,TRAVIS COUNTY,TX,78728,AUSTIN WHITE LIME CO (100%),244,"C,S"
2013,AUTUMN HILLS RECYCLING AND DISPOSAL FACILITY,1006132,700 56TH AVENUE,42.780647,-85.920569,ZEELAND,OTTAWA,MI,49464,"Waste Management, Inc. (100%)",91610,"C,HH"
2013,AUX SABLE LIQUID PRODUCTS INC,1005770,6155 EAST U.S. ROUTE 6,41.413284,-88.304262,MORRIS,GRUNDY COUNTY,IL,60450,AUX SABLE LIQUID PRODUCTS  (100%),5459,"C,MM,NN,W"
2013,AVA LANDFILL,1003033,7044 ST RTE 294,43.461,-75.412,AVA,ONEIDA,NY,13303,Oneida-Herkimer Solid Waste Management Authority (100%),62856,"C,HH"
2013,AVENAL REGIONAL LANDFILL,1003328,1200 Skyline Blvd,36.01195,-120.11535,AVENAL,KINGS COUNTY,CA,93204,"Waste Connections, Inc. (100%)",82835,HH
2013,AVINGER GAS PLANT,1003082,2339 Avinger Cut Off Road,32.854676,-94.59315,Avinger,CASS,TX,75630,"Enbridge Energy Partners, L.P. (100%)",4251,"C,W"
2013,AZUSA LAND RECLAMATION CO INC INERT LF,1007682,1211 W GLADSTONE ST,34.11432,-117.92861,AZUSA,LOS ANGELES,CA,91702,WASTE MANAGEMENT INC (100%),101008,"C,HH"
2013,Abbott Laboratories,1000378,1250 West Maricopa Highway,32.894,-111.78312,Casa Grande,PINAL COUNTY,AZ,85193,ABBOTT LABORATORIES (100%),13,C
2013,Abbott Nutrition - A Division of Abbott Laboratories,1003205,1518 MAIN STREET,37.130556,-79.267778,ALTAVISTA,CAMPBELL COUNTY,VA,24517,ABBOTT LABORATORIES (100%),13,C
2013,Aberdeen Generating Station,1010630,421 30th Ave SW,45.45807,-98.50242,Aberdeen,BROWN,SD,57401,NORTHWESTERN ENERGY CORP (100%),7,"C,D"
2013,Abilene Regional Landfill,1007357,,32.534633,-99.753812,Abilene,TAYLOR,TX,79601,"Republic Services, Inc. (100%)",69770,HH
2013,Acadia Power Station,1001347,30385 CROWLEY EUNICE HWY,30.4284,-92.4112,EUNICE,Acadia,LA,70535,CLECO CORP (50%); Entergy (50%),715,D
2013,Accident Station,1008234,196 Texas Eastern Drive,39.633667,-79.340479,Accident,GARRETT COUNTY,MD,21520,"Texas Eastern Transmission, L.P. (100%)",5879,"C,W"
2013,Ackerman Combined Cycle,1000125,2510 PENSACOLA ROAD,33.3806,-89.2039,ACKERMAN,Choctaw,MS,39735,Quantum Utility Generation (100%),42,"C,D"
2013,Acme Brick - Denton Plant,1011325,220 East Daniels St,33.181116,-97.133909,Denton,DENTON COUNTY,TX,76205,Acme Brick Company (100%),13,C
2013,Ada County Solid Waste Management,1003446,10300 Seaman's Gulch Road,43.705695,-116.281228,Boise,ADA COUNTY,ID,83714,Ada County  (100%),185161,"C,HH"
2013,Addis Carbon Black Plant,1000603,5221 Sid Richardson Road,30.3288,-91.2792,Addis,WEST BATON ROUGE PARISH,LA,70710,SID RICHARDSON CARBON & ENERGY CO (100%),1,"C,X"
2013,AdvanSix Resins & Chemicals LLC,1000089,2501 MARGARET STREET,40.0067,-75.0686,PHILADELPHIA,Philadelphia,PA,19137,HONEYWELL Resins & Chemicals LLC (100%),68,C
2013,Advanced Graphite Materials LLC,1005068,2698 PHILIPPI PIKE,39.25496,-80.29091,ANMOORE,HARRISON COUNTY,WV,26323,GrafTech International LTD (100%),12,C
2013,"Advanced Tri-Gen Power Systems, LLC",1006553,1823 East Neal Lane,40.843013,-89.564082,Mossville,PEORIA COUNTY,IL,61552,CATERPILLAR INC (100%),65,C
2013,"Aemetis Advanced Fuels Keyes, Inc.",1012089,4209 Jessup Road,37.5350396,-120.9646866,Ceres,,CA,95307,,26,C
2013,Aera Energy 25 Hill,1002316,29235 Highway 33,35.09233,-119.407371,Maricopa,KERN,CA,93252,SHELL OIL CO (51.8%); EXXONMOBIL CORP (48.2%),84,C
2013,Aera Energy Alberta Finley Shale,1002156,25401 Highway 33,35.23147,-119.57948,Fellows,KERN COUNTY,CA,93224,SHELL OIL CO (51.8%); EXXONMOBIL CORP (48.2%),83,C
2013,Aera Energy Anderson Fitzgerald,1006844,59231 Main Camp Road,35.299879,-119.742604,McKittrick,KERN,CA,93251,SHELL OIL CO (51.8%); EXXONMOBIL CORP (48.2%),26,C
2013,Aera Energy Belridge,1006845,59231 Main Camp Road,35.45306,-119.719337,McKittrick,KERN,CA,93251,SHELL OIL CO (51.8%); EXXONMOBIL CORP (48.2%),1068,"C,NN,W"
2013,Aera Energy Buena Fe,1003702,29235 Highway 33,35.09233,-119.407371,Maricopa,KERN,CA,93252,SHELL OIL CO (51.8%); EXXONMOBIL CORP (48.2%),13,C
2013,Aera Energy Calso,1002315,59231 Main Camp Road,35.299879,-119.742604,McKittrick,KERN,CA,93251,SHELL OIL CO (51.8%); EXXONMOBIL CORP (48.2%),16,C
2013,Aera Energy Coalinga,1006405,29010 Shell Road,36.24005,-120.32416,Coalinga,FRESNO COUNTY,CA,93210,SHELL OIL CO (51.8%); EXXONMOBIL CORP (48.2%),118,C
2013,Aera Energy Lost Hills,1005790,59231 Main Camp Road,35.299879,-119.742604,McKittrick,KERN,CA,93251,SHELL OIL CO (51.8%); EXXONMOBIL CORP (48.2%),93,C
2013,Aera Energy MOCO,1006914,29235 Highway 33,35.09233,-119.407371,Maricopa,KERN,CA,93252,SHELL OIL CO (51.8%); EXXONMOBIL CORP (48.2%),184,C
2013,Aera Energy Metson,1005635,29235 Highway 33,35.09233,-119.407371,Maricopa,KERN,CA,93252,SHELL OIL CO (51.8%); EXXONMOBIL CORP (48.2%),22,C
2013,Aera Energy San Ardo,1006846,66893 Sargent Road,35.95232,-120.86046,San Ardo,MONTEREY COUNTY,CA,93450,SHELL OIL CO (51.8%); EXXONMOBIL CORP (48.2%),88,C
2013,Aera Energy San Joaquin Basin,1008346,10000 Ming Avenue,35.1268513,-119.1855785,Bakersfield,,CA,93311,SHELL OIL CO (51.8%); EXXONMOBIL CORP (48.2%),15024,W
2013,Aera Energy Ventura,1002155,3382 N. Ventura Avenue,34.310556,-119.292778,Ventura,VENTURA,CA,93001,SHELL OIL CO (51.8%); EXXONMOBIL CORP (48.2%),6,C
2013,Aera Energy Wier Gore Maxwell,1009944,25401 Highway 33,35.23147,-119.57948,Fellows,KERN COUNTY,CA,93224,Shell Oil Company (51.8%); Exxon Mobil Corporation (48.2%),8,C
2013,Afton Generating Station,1006556,10100 WEST AFTON ROAD,32.1134,-106.848,LA MESA,Dona Ana,NM,88044,Public Service Company of New Mexico (100%),135,"C,D"
2013,Ag Processing Inc,1002365,2753 Port Neal Circle,42.305176,-96.362271,Sergeant Bluff,WOODBURY COUNTY,IA,51054,AG PROCESSING INC (100%),12,C
2013,Agave Dagger Draw Gas Plant,1008358,278 Pipeline Road,32.71629,-104.44602,Artesia,EDDY COUNTY,NM,88210,Yates Petroleum Corporation (100%),1218,"C,PP,UU,W"
2013,Agra Resources LLC dba POET BIOREFINING - GLENVILLE,1000857,15300 780TH AVE,43.576024,-93.301823,ALBERT LEA,FREEBORN COUNTY,MN,56007,Agra Resources Coop (100%),31,"C,PP"
2013,Agropur,1012864,547 West Nez Perce,42.709612,-114.527559,Jeorme,JEROME COUNTY,ID,83338,,12,C
2013,Agua Fria Generating Station,1007206,7302 W NORTHERN AVE,33.5542,-112.2161,GLENDALE,Maricopa,AZ,85303,SALT RIVER PROJECT (100%),26,"C,D"
2013,Agua Mansa Power,1000423,2040 AGUA MANSA ROAD,34.0414,-117.3603,COLTON,San Bernardino,CA,92324,City of Colton CA (100%),10,D
2013,"Ahlstrom Filtration, LLC.",1011038,1200 East Elm Street,39.55535,-89.28065,Taylorville,CHRISTIAN COUNTY,IL,62568,Ahlstrom Filtration LLC (100%),13,C
2013,Air Products LLC - Pasadena Plant,1003007,1423 Pasadena Freeway,29.716191,-95.194361,Pasadena,HARRIS COUNTY,TX,77506,AIR PRODUCTS & CHEMICALS INC (100%),12,C
2013,Air Products La Porte Facility,1003160,10202 Strang Rd,29.702,-95.071,La Porte,HARRIS,TX,77571,AIR PRODUCTS & CHEMICALS INC (100%),40,"C,D"
2013,Air Products Port Arthur Facility,1006402,1801 S Gulfway Dr within Valero Refinery,29.859444,-93.965833,Port Arthur,JEFFERSON COUNTY,TX,77640,"Air Products and Chemicals, Inc. (100%)",325,"C,P,PP"
2013,"Air Products and Chemicals, Inc.",1005573,4900 Este Avenue,39.18291,-84.50394,Cincinnati,HAMILTON COUNTY,OH,45232,AIR PRODUCTS & CHEMICALS INC (100%),4,"C,P"
2013,"Air Products and Chemicals, Inc.",1007116,412 North Main Street,37.03723,-88.351153,Calvert City,MARSHALL,KY,42029,"Air Products and Chemicals, Inc. (100%)",1,C
2013,Air Quality Mine,1001685,3609 South Hart Street,38.62569,-87.44488,Vincennes,KNOX COUNTY,IN,47591,Peabody Energy Corporation (100%),15902,"C,FF"
2013,Akutan Seafood Processing Facility,1010624,1 Salmon Lane,54.132189,-165.786894,Akutan,ALEUTIANS EAST,AK,99553,Trident Seafoods Corporation (100%),59,C
2013,"Akzo Nobel Functional Chemicals, LLC",1010593,13440 Highway 43 North,30.969439,-88.0175,Axis,MOBILE COUNTY,AL,36505,"Akzo Nobel Chemicals, Inc. (100%)",11,C
2013,Aladdin Manufacturing - Glasgow facility,1006235,404 ANDERSON STREET,37.636098,-79.446543,GLASGOW,ROCKBRIDGE COUNTY,VA,24555,"MOHAWK INDUSTRIES, INC (100%)",8,C
2013,Alamance County Landfill,1005138,2701 Austin Quarter Rd.,35.9306,-79.2941,Graham,ALAMANCE COUNTY,NC,27253,Alamance County (100%),112634,HH
2013,Alamo San Antonio Cement Plant,1007208,6055 West Green Mountain Road,29.610148,-98.367792,San Antonio,BEXAR COUNTY,TX,78266,None (100%),843,H
2013,"Alaska Village Electric Cooperative, Inc.",1010937,4831 Eagle Street,61.17697,-149.87559,Anchorage,ANCHORAGE MUNICIPALITY,AK,99503,Bethel Utilities Corporation (100%),33,C
2013,Albemarle Corporation Bayport Plant,1003570,13000 Bay Park Road,29.64174,-95.0654,Pasadena,HARRIS COUNTY,TX,77507,Albemarle Corporation (100%),53,C
2013,"Albert Einstein College of Medicine, Inc.",1009825,1300 Morris Park Ave,40.85112,-73.84435,Bronx,BRONX,NY,10461,Albert Einstein College of Medicine (100%),55,C
2013,Alderson Regional Landfill,1003411,201 SOUTH FIFTH STREET,34.894582,-95.686187,ALDERSON,PITTSBURG COUNTY,OK,74522,"Republic Services, Inc. (100%)",39943,HH
2013,Alex Ty Cooke Generating Station,1000955,3500 E SLATON HWY,33.5211,-101.7906,LUBBOCK,Lubbock,TX,79404,City of Lubbock Texas (100%),87,"C,D"
2013,"Alexin, LLC",1010531,1390 S. Adams Street,40.72133,-85.20312,Bluffton,WELLS COUNTY,IN,46714,"Alexin, LLC (100%)",12,C
2013,Alfred L Pierce Generating Station,1000221,195 EAST ST,41.4485,-72.834,WALLINGFORD,New Haven,CT,6492,Connecticut Municipal Electric Energy Cooperative (100%),3,D
2013,"Algonquin Power Sanger, LLC",1005044,1125 Muscat Avenue,36.68508,-119.55227,Sanger,FRESNO COUNTY,CA,93657,ALGONQUIN POWER FUND (AMERICA) INC (100%),29,C
2013,"Algonquin Power Windsor Locks, LLC",1006409,26 CANAL BANK RD,41.9227,-72.6255,WINDSOR LOCKS,Hartford,CT,6096,"Algonquin Power Windsor Locks, L.L.C. (100%)",43,"C,D"
2013,All American Asphalt,1011361,1776 All American Way,33.86716,-117.52413,Corona,RIVERSIDE COUNTY,CA,92879,All American Asphalt (100%),9,C
2013,All American Oil and Gas Company,1010707,3300 Manor St,35.5217431,-118.9062794,Bakersfield,,CA,93308,"All American Oil and Gas, Inc. (100%)",4,W
2013,Allegheny Energy Units 1 & 2,1007659,,40.5447,-79.7678,SPRINGDALE,Allegheny,PA,15144,"Allegheny Energy (50%); FirstEnergy Generation, LLC (50%)",6,D
2013,"Allegheny Energy Units 3, 4 & 5",1007360,,40.5456,-79.7669,SPRINGDALE,Allegheny,PA,15144,"Allegheny Energy (50%); FirstEnergy Generation, LLC (50%)",618,D
2013,Allegheny Energy Units 8 & 9,1007454,GANS ROAD,39.7475,-79.8388,GANS,Fayette,PA,15439,"Allegheny Energy (50%); FirstEnergy Generation, LLC (50%)",7,D
2013,Allen,1000916,2574 PLANT RD,35.0742,-90.1439,MEMPHIS,Shelby,TN,38109,,1133,"C,D"
2013,Allen S King,1000691,1103 KING PLANT RD,45.03,-92.7786,OAK PARK HEIGHTS,Washington,MN,55003,XCEL ENERGY INC (100%),651,"C,D"
2013,"Allens, Inc. - Van Buren",1008032,1218 Mary Allen Street,35.4312,-94.34633,Van Buren,CRAWFORD COUNTY,AR,72957,ALLENS INC (100%),745,"C,II"
2013,Alliance Compressor Station,1011298,12721 Highway 114,33.035137,-97.332832,Justin,DENTON,TX,76247,"Enterprise Products Operating, LLC (100%)",7040,"C,W"
2013,Alliance Pipeline L.P. Albert Lea 25-A,1006841,85485 200th Street,43.64461,-93.15942,Albert Lea,FREEBORN COUNTY,MN,56007,ENBRIDGE INC (50%); VERESEN INC (50%),1506,"C,W"
2013,Allison Compressor Station,1000890,,33.1991,-97.4179,Decatur,WISE,TX,76234,DEVON ENERGY (100%),43,C
2013,Alma,1000988,500 Old State Hwy 35,44.3085,-91.9106,Alma,Buffalo,WI,54610,Dairyland Power Cooperative (100%),24,D
2013,Almatis Burnside Inc,1006161,41237 Highway 22,30.148196,-90.909296,Burnside,ASCENSION PARISH,LA,70738,Almatis Burnside Inc. (100%),98,C
2013,Almond Power Plant,1007315,4500 CROWS LANDING ROAD,37.5739,-120.9854,MODESTO,Stanislaus,CA,95358,TURLOCK IRRIGATION DISTRICT (100%),42,D
2013,Alon Bakersfield Refining,1003689,6451 Rosedale Highway,35.3825,-119.070556,Bakersfield,KERN,CA,93308,ALON USA LP (100%),344,"C,Y"
2013,"AlphaPET, Inc.",1005826,1301 Finley Island Road,34.64162,-87.05203,Decatur,MORGAN COUNTY,AL,35601,ALPHAPET INC (100%),15,C
2013,Alstom Grid LLC,1000039,One Power Lane,40.124713,-79.930463,Charleroi,WASHINGTON,PA,15022,ALSTOM INC (100%),0,"C,QQ,SS"
2013,"Alta Mesa Services, LP",1009511,"15021 Katy Freeway, Suite 400",29.78434,-95.64861,Houston,HARRIS COUNTY,TX,77094,"Alta Mesa Services, LP (100%)",65296,W
2013,AltaGas Ripon Energy Inc.,1001625,944 South Stockton Ave.,37.7313,-121.1161,Ripon,SAN JOAQUIN COUNTY,CA,95366,"VERESEN, INC (100%)",28,C
2013,"Altair Disposal Services, LLC",1007072,5464 Highway 71,29.593197,-96.485878,Altair,COLORADO,TX,77412,Clean Harbors (100%),31479,HH
2013,Altamont Landfill & Resource Recovery Facility,1007699,10840 Altamont Pass Road,37.753333,-121.648611,Livermore,ALAMEDA,CA,94551,"Waste Management, Inc. (100%)",199105,"C,HH"
2013,Altavista Power Station,1001229,104 WOOD LANE,37.1183,-79.2726,ALTAVISTA,Campbell,VA,24517,DOMINION RESOURCES INC (100%),518,"C,D"
2013,Alumax Mill Products Inc,1003379,1480 Manheim Pike,40.063333,-76.320556,Lancaster,LANCASTER COUNTY,PA,17604,ALCOA INC (100%),53,C
2013,Amazon-Congo Compressor Station,1001786,,44.169,-106.1393,Gillette,Johnson,WY,82716,Anadarko Petroleum Corporation (100%),4,C
2013,Amber Junction Compressor Station,1003209,1081 County Road 1280,35.160203,-97.857536,AMBER,GRADY,OK,73004,CenterPoint Energy Resources Corp (100%),3240,"C,W"
2013,Ameren Illinois,1008026,300 Liberty Street,40.69048,-89.59244,Peoria,PEORIA COUNTY,IL,61602,AMEREN CORP (100%),74426,"NN,W"
2013,Ameren Missouri,1004034,1901 Chouteau Avenue,38.620785,-90.211635,St. Louis,SAINT LOUIS CITY,MO,63103,AMEREN CORP (100%),13338,"NN,W"
2013,American Canyon Landfill,1004465,,38.1809,-122.281,American Canyon,NAPA,CA,94503,Napa Vallego Waste Management Authority (100%),47578,HH
2013,American Centrifuge Plant,1007415,3930 U S Route 23 South,39.010113,-83.026022,Piketon,PIKE COUNTY,OH,45661,USEC Inc. (100%),3,C
2013,American Crystal Sugar Company - Drayton,1006878,8152 Old Highway 44,48.591667,-97.175,Drayton,PEMBINA,ND,58225,AMERICAN CRYSTAL SUGAR CO (100%),52777,"C,S,TT"
2013,American Eagle,1010323,"200 Remington Coal Lane, Coal Fork Hollow",38.15569,-81.493799,Cabin Creek,KANAWHA COUNTY,WV,25035,Patriot Coal Corporation (100%),514378,FF
2013,American Proteins - Ball Ground,1010126,14938 East Cherokee Drive,34.29193,-84.38933,Ball Ground,CHEROKEE COUNTY,GA,30107,AMERICAN PROTEINS INC (100%),4,C
2013,"American Proteins, Inc. - Cumming",1007915,4990 Leland Drive,34.281587,-84.058034,Cumming,FORSYTH COUNTY,GA,30041,AMERICAN PROTEINS INC (100%),887,"C,II"
2013,"American Sugar Refining, Inc. - Baltimore Refinery",1001859,1100 KEY HIGHWAY EAST,39.28023,-76.57112,BALTIMORE,BALTIMORE CITY,MD,21230,AMERICAN SUGAR REFINING INC (100%),48,C
2013,"American Sugar Refining, Inc. - Yonkers Refinery",1001861,1 Federal St.,40.92564,-73.90465,Yonkers,WESTCHESTER COUNTY,NY,10705,AMERICAN SUGAR REFINING INC (100%),40,C
2013,Ames,1005802,200 E 5TH ST,42.0247,-93.6069,AMES,Story,IA,50010,City of Ames (100%),1168,D
2013,Amplify Energy Operating 260 East Texas Basin,1010839,"500 Dallas Street, Suite 1600",29.7555,-95.3616,Houston,HARRIS COUNTY,TX,77002,Memorial Resource Development LLC (100%),8016,W
2013,"Amplify Energy Operating LLC 220 Gulf Coast Basin (LA, TX)",1009862,500 Dallas Street Suite 1600,29.7555,-95.3616,Houston,HARRIS COUNTY,TX,77002,"Memorial Production Operating, LLC (100%)",15445,W
2013,"Amsted Rail Company, Inc.",1003757,1700 Walnut Street,38.70316,-90.158809,Granite City,MADISON COUNTY,IL,62040,"Amsted Rail Company, Inc (100%)",8,C
2013,Anadarko,1000865,701 B NE 7TH ST,35.0847,-98.23,ANADARKO,Caddo,OK,73005,WESTERN FARMERS ELECTRIC COOPERATIVE (100%),189,"C,D"
2013,Anadarko Basin,1008200,5847 San Felipe Suite 3000,29.75476,-95.36985,Houston,,TX,77057,"EAGLE ROCK ENERGY PARTNERS, LP (100%)",19392,W
2013,Anadarko Facility,1008715,"840 Gessner Road, Suite 800",29.7726138,-95.514493,Houston,,TX,77024,Penn Virginia Corporation (100%),22620,W
2013,Anaheim Combustion Turbine,1001134,3071 E Miraloma Ave,33.8539,-117.8561,Anaheim,Orange,CA,92806,The City of Anaheim (100%),24,D
2013,Analog Devices Inc.,1010317,275 S. Hillview Drive,37.42803,-121.89276,Milpitas,SANTA CLARA COUNTY,CA,95035,Linear Technology Corporation (100%),1,"C,I"
2013,"Analog Devices, Inc./ Wilmington Manufacturing",1003759,"804 Woburn Street, MS-424",42.5307,-71.14958,Wilmington,MIDDLESEX COUNTY,MA,1887,"Analog Devices, Inc.  (100%)",3,"C,I"
2013,Anchor Glass Container - Plant 41,1002181,151 E. MCCANN'S BLVD.,42.120763,-76.813168,ELMIRA HEIGHTS,CHEMUNG COUNTY,NY,14903,Ardagh Glass Inc. (100%),34,"C,N"
2013,Anchor Glass Container Corporation - Plant 14,1004943,1044 BOOTH RD,32.586745,-83.591784,WARNER ROBINS,HOUSTON,GA,31088,Ardagh Glass Inc. (100%),33,"C,N"
2013,Anchor Glass Container Corporation - Plant 15,1005074,601 E BOLLINGER RD,35.447778,-95.962778,HENRYETTA,OKMULGEE COUNTY,OK,74437,Ardagh Glass Inc. (100%),33,"C,N"
2013,Anchor Glass Container Corporation. - Plant 07,1004941,2121 HURON ST,30.349681,-81.712584,JACKSONVILLE,DUVAL COUNTY,FL,32254,Ardagh Glass Inc. (100%),24,"C,N"
2013,Anchor Glass Container Corporation. - Plant 12,1004942,4108 VALLEY INDUSTRIAL BLVD N,44.79873,-93.46704,SHAKOPEE,SCOTT COUNTY,MN,55379,Ardagh Glass Inc. (100%),26,"C,N"
2013,Anchor Glass Container. - Plant 42,1002178,200 W BELLEVIEW,39.125,-84.85545,LAWRENCEBURG,DEARBORN COUNTY,IN,47025,Ardagh Glass Inc. (100%),14,"C,N"
2013,Anclote Power Plant,1007246,1729 BAILLIES BLUFF ROAD,28.1844,-82.7887,HOLIDAY,Pasco,FL,34691,DUKE ENERGY CORP (100%),532,"C,D"
2013,Andeavor EL PASO ALL SITES,1003564,212 North Clark Street,31.76945,-106.41426,EL PASO,EL PASO COUNTY,TX,79905,WESTERN REFINING INC (100%),3655,"C,MM,P,Y"
2013,Anderson,1001116,6035 PARK ROAD,40.0529,-85.7389,ANDERSON,Madison,IN,46011,Indiana Municipal Power Agency (100%),2,"C,D"
2013,"Anderson Energy, Inc. 360 - Anadarko Basin",1011070,"300 W. Douglas, Suite 410",37.68599,-97.34091,Wichita,SEDGWICK,KS,67202,"Anderson Energy, Inc. (100%)",546,W
2013,"Anderson Energy, Inc. 375 - Sedgwick Basin",1011289,"300 W. Douglas, Suite 410",37.68599,-97.34091,Wichita,SEDGWICK COUNTY,KS,67202,"Anderson Energy, Inc. (100%)",1691,W
2013,"Anderson Energy, Inc. 385 - Central Kansas Uplift",1011290,"300 W. Douglas, Suite 410",37.68599,-97.34091,Wichita,SEDGWICK COUNTY,KS,67202,"Anderson Energy, Inc. (100%)",3276,W
2013,"Anderson Energy, Inc. 450 - Las Animas Arch",1011291,"300 W. Douglas, Suite 410",37.68599,-97.34091,Wichita,SEDGWICK COUNTY,KS,67202,"Anderson Energy, Inc. (100%)",1092,W
2013,Anderson Regional Landfill,1002813,203 Landfill Road,34.57226,-82.4603,Belton,ANDERSON COUNTY,SC,29627,Waste Connections Inc. (100%),124525,HH
2013,Angus Anson,1001097,7100 EAST RICE ST,43.6033,-96.6369,SIOUX FALLS,Minnehaha,SD,57101,XCEL ENERGY INC (100%),15,"C,D"
2013,Anheuser-Busch LLC. - St. Louis Brewery,1002037,One Busch Place,38.5961,-90.2128,St. Louis,ST. LOUIS CITY,MO,63118,ANHEUSER-BUSCH INBEV (100%),609,"C,PP"
2013,Anna Platform,1001756,,60.97640050572,-151.3151066962,Anchorage,KENAI PENINSULA,AK,99503,"Hilcorp Alaska, LLC (100%)",4614,"C,W"
2013,Anoka Municipal Regional Landfill,1011466,14730 NW Sunfish Blvd,45.23715,-93.42943,Ramsey,ANOKA COUNTY,MN,55303,MINNESOTA POLLUTION CONTROL AGENCY (100%),29671,HH
2013,Anson County Waste Management Facility,1002236,375 Dozer Drive,35.00019,-80.16765,Polkton,ANSON COUNTY,NC,28135,"WASTE CONNECTIONS, INC (100%)",134669,HH
2013,Antelope Flat/ Sand Wash Compressor Station,1001896,,39.9951,-109.4712,Vernal,UINTAH,UT,84078,Anadarko Petroleum Corporation (100%),19,C
2013,Antelope Hills Gas Plant,1008268,,35.996714,-100.12421,Glazier,HEMPHILL COUNTY,TX,79014,PVR MIDSTREAM LLC (100%),4807,"C,W"
2013,Antelope Refining,1006508,2070 N Hwy 59,43.018663,-105.261432,Douglas,CONVERSE COUNTY,WY,82633,"GENESIS ENERGY, LP (90.91%); ALPINE ENERGY, LLC (9.09%)",37,"C,MM,Y"
2013,Antelope Station,1006652,1454 CR 315,33.866995,-101.866362,ABERNATHY,HALE,TX,79311,GOLDEN SPREAD ELECTRIC COOPERATIVE (100%),15,C
2013,Antelope Valley,1001055,HWY 200,47.3714,-101.8344,BEULAH,Mercer,ND,58523,BASIN ELECTRIC (100%),18932,D
2013,Antero Resources - 160 - Appalachian Basin (Utica),1010718,1615 Wynkoop Street,39.7541032,-105.0002242,Denver,,CO,80202,Antero Resources CORPORATION (100%),9387,W
2013,Antero Resources - 160A - Appalachian Basin (Eastern Overthurst Area),1010183,1615 Wynkoop Street,39.75231,-104.99906,Denver,DENVER COUNTY,CO,80202,Antero Resources Appalachian Corp (100%),122029,W
2013,Apache Corp. - Palo Duro,1010603,2000 Post Oak Blvd.,36.073218,-95.922258,Houston,TULSA COUNTY,TX,77056,APACHE CORP (100%),5867,W
2013,Apache Corp. Central - Anadarko Basin 360,1009335,2000 Post Oak Blvd.,29.7484861,-95.4699173,Houston,,TX,77056,APACHE CORP (100%),484746,W
2013,Apache Corp. GC Onshore - Gulf Coast Basin 220,1008224,"2000 Post Oak, Suite 100",29.74592,-95.55962,Houston,HARRIS COUNTY,TX,77056,APACHE CORP (100%),57766,W
2013,Apache Corp. Permian - Crane Gas Plant,1009986,303 Veterans Airpark Ln,32.03544,-102.08652,Midland,MIDLAND COUNTY,TX,79705,APACHE CORPORATION (100%),12,C
2013,Apache Corp. Permian - Permian Basin 430,1009391,303 Veterans Airpark Ln,32.03544,-102.08652,Midland,MIDLAND COUNTY,TX,79705,APACHE CORPORATION (100%),114386,W
2013,Apache Station,1005949,3525 N US HWY 191,32.0619,-109.8931,COCHISE,Cochise,AZ,85606,ARIZONA ELECTRIC COOPERATIVE CORP (100%),7565,"C,D"
2013,Apex Generating Station,1000068,15555 APEX POWER PARKWAY,36.4178,-114.9622,LAS VEGAS,Clark,NV,89165,"LS Power Development, LLC (100%)",81,"C,D"
2013,Appalachian Basin (Eastern Overthrust Area),1010721,10000 Energy Dr,29.93876,-95.3509,Spring,HARRIS COUNTY,TX,77389,Southwestern Energy (100%),20206,W
2013,Appalachian Basin - AAPG Province 160A,1008937,"33 West Thrid Street, Suite 300",41.241182,-77.0010648,Williamsport,,PA,17701,Anadarko Petroleum Corporation (100%),84143,W
2013,Applied Energy LLC Naval Station,1005566,"3970 Surface Navy Blvd, Bldg 3427",32.684066,-117.125996,San Diego,SAN DIEGO,CA,92136,Atlantic Power Corporation (100%),92,C
2013,"Approach Operating, LLC 430 Permian Basin",1008456,6500 W Freeway Suite 800,32.717251,-97.443544,Fort Worth,TARRANT COUNTY,TX,76116,"Approach Resources, INC (100%)",91598,W
2013,Arapaho,1004686,,35.7481,-99.202,BUTLER,CUSTER,OK,73625,"MARKWEST ENERGY PARTNERS, LP (100%)",9192,"C,W"
2013,Arapahoe,1001460,2601 S PLATTE RIVER DR,39.67,-105.0028,DENVER,Denver,CO,80223,XCEL ENERGY INC (100%),249,D
2013,Arapahoe Combustion Turbine Facility,1001360,2601 SOUTH PLATTE RIVER ROAD,39.6692,-105.0018,DENVER,Denver,CO,80223,SOUTHWEST GENERATION OPERATING CO (100%),5,"C,D"
2013,Arc Park Compressor Station,1011268,,32.769706,-97.262894,Fort Worth,TARRANT,TX,76103,"Access Midstream Partners, L.P. (100%)",10,C
2013,ArcelorMittal Cleveland LLC,1007177,3060 EGGERS AVENUE,41.4739,-81.6728,CLEVELAND,Cuyahoga,OH,44105,ArcelorMittal USA LLC (100%),234,"C,Q"
2013,ArcelorMittal Columbus LLC,1006951,1800 Watkins Road,39.90428,-82.94609,Columbus,FRANKLIN COUNTY,OH,43207,ArcelorMittal USA LLC (100%),13,C
2013,ArcelorMittal Georgetown,1001699,420 South Hazard Street,33.36792,-79.29486,Georgetown,GEORGETOWN COUNTY,SC,29440,ArcelorMittal USA LLC (100%),12,"C,Q"
2013,ArcelorMittal Indiana Harbor LLC,1000588,3001 Dickey Road,41.651165,-87.459167,East Chicago,LAKE COUNTY,IN,46312,ArcelorMittal USA LLC (100%),237,"C,Q"
2013,ArcelorMittal Indiana Harbor Long Carbon,1005021,3300 Dickey Road,41.651778,-87.462722,East Chicago,LAKE COUNTY,IN,46312,ArcelorMittal USA LLC (100%),18,"C,Q"
2013,ArcelorMittal Minorca Mine,1003669,5950 Old Highway 53,47.559109,-92.518973,Virginia,ST. LOUIS COUNTY,MN,55792,ArcelorMittal USA LLC (100%),9,"C,Q"
2013,ArcelorMittal Plate LLC - Gary Plate,1000895,1 North Broadway,41.608722,-87.337224,Gary,LAKE,IN,46402,ArcelorMittal USA LLC. (100%),12,C
2013,ArcelorMittal Princeton,1010125,640 Cloverdew Dairy Road,37.338238,-81.08738,Princeton,MERCER,WV,24740,"ArcelorMittal Coal Group USA, LLC. (100%)",24745,FF
2013,ArcelorMittal Weirton LLC,1000260,100 Pennsylvania Avenue,40.422,-80.5955,WEIRTON,Hancock,WV,26062,ArcelorMittal USA LLC (100%),99,C
2013,Archer Daniels Midland,1003476,400 E. Holt St.,39.169552,-91.879288,Mexico,AUDRAIN,MO,65265,Archer Daniels Midland (100%),13,C
2013,Archer Daniels Midland Co.,1005661,4666 FARIES PARKWAY,39.8675,-88.885,DECATUR,Macon,IL,62521,ARCHER DANIELS MIDLAND CO (100%),25798,"C,II,PP,UU"
2013,Archer Daniels Midland Co. - Peoria,1000466,FOOT OF EDMUND ST,40.6776,-89.6069,PEORIA,Peoria,IL,61602,ARCHER DANIELS MIDLAND CO (100%),326,C
2013,Arconic Inc. - Cleveland Works,1005286,1600 HARVARD AVENUE,41.4476,-81.67533,CUYAHOGA HEIGHTS,CUYAHOGA COUNTY,OH,44105,ALCOA INC (100%),1239,"C,TT"
2013,Ardagh Glass Inc. (Bridgeton),1002504,443 S EAST AVE,39.409,-75.21958,BRIDGETON,CUMBERLAND COUNTY,NJ,8302,Ardagh Glass Inc. (100%),18,"C,N"
2013,Ardagh Glass Inc. (Burlington),1005977,815 SOUTH MCHENRY STREET,42.6626,-88.2906,BURLINGTON,RACINE COUNTY,WI,53105,SAINT-GOBAIN CONTAINERS INC (100%),21,"C,N"
2013,Ardagh Glass Inc. (Dolton),1000105,13850 COTTAGE GROVE AVENUE,41.64212,-87.59966,DOLTON,COOK,IL,60419,SAINT-GOBAIN CONTAINERS INC (100%),28,"C,N"
2013,Ardagh Glass Inc. (Dunkirk),1000002,524 E. CENTER STREET,40.371053,-85.198134,DUNKIRK,JAY COUNTY,IN,47336,SAINT-GOBAIN CONTAINERS INC (100%),35,"C,N"
2013,Ardagh Glass Inc. (Henderson),1000003,620 Facet Road,36.291066,-78.391883,Henderson,VANCE COUNTY,NC,27537,SAINT-GOBAIN CONTAINERS INC (100%),27,"C,N"
2013,Ardagh Glass Inc. (Lincoln),1000004,1200 NORTH LOGAN STREET,40.157643,-89.353796,LINCOLN,LOGAN COUNTY,IL,62656,SAINT-GOBAIN CONTAINERS INC (100%),19,"C,N"
2013,Ardagh Glass Inc. (Madera),1000005,24441 AVENUE 12 & ROAD 24 1/2,36.92375,-120.10412,MADERA,MADERA COUNTY,CA,93637,SAINT-GOBAIN CONTAINERS INC (100%),29,"C,N"
2013,Ardagh Glass Inc. (Milford),1000006,1 NATIONAL STREET,42.127778,-71.510556,MILFORD,WORCESTER,MA,1757,SAINT-GOBAIN CONTAINERS INC (100%),18,"C,N"
2013,Ardagh Glass Inc. (Pevely),1000028,1500 Ardagh Group Drive,38.295167,-90.400944,PEVELY,JEFFERSON COUNTY,MO,63070,SAINT-GOBAIN CONTAINERS INC (100%),27,"C,N"
2013,Ardagh Glass Inc. (Port Allegany),1000020,ONE GLASS PLACE,41.81787,-78.28699,PORT ALLEGANY,MCKEAN COUNTY,PA,16743,SAINT-GOBAIN CONTAINERS INC (100%),21,"C,N"
2013,Ardagh Glass Inc. (Ruston),1000021,4241 HIGHWAY 563,32.546411,-92.763639,SIMSBORO,LINCOLN PARISH,LA,71275,SAINT-GOBAIN CONTAINERS INC (100%),30,"C,N"
2013,Ardagh Glass Inc. (Salem),1002009,83 GRIFFITH ST,39.574909,-75.469493,SALEM,SALEM COUNTY,NJ,8079,Ardagh Glass Containers Inc. (100%),18,"C,N"
2013,Ardagh Glass Inc. (Sapulpa),1000023,1000 NORTH MISSION STREET,36.009924,-96.099233,SAPULPA,CREEK COUNTY,OK,74066,SAINT-GOBAIN CONTAINERS INC (100%),33,"C,N"
2013,Ardagh Glass Inc. (Seattle),1000024,5801 EAST MARGINAL WAY SOUTH,47.55262,-122.33655,SEATTLE,KING COUNTY,WA,98134,SAINT-GOBAIN CONTAINERS INC (100%),29,"C,N"
2013,Ardagh Glass Inc. (Wilson),1000026,2201 FIRESTONE PARKWAY,35.7608,-77.8833,WILSON,WILSON COUNTY,NC,27893,SAINT-GOBAIN CONTAINERS INC (100%),31,"C,N"
2013,Ardagh Glass Inc. (Winchester),1006060,603 E NORTH ST,40.173694,-84.971694,WINCHESTER,RANDOLPH COUNTY,IN,47394,Ardagh Glass Inc. (100%),33,"C,N"
2013,Area 31 CGP Facility,1008611,5911 County Road 136,28.62348,-97.99428,Pawnee,BEE COUNTY,TX,78145,EFS MIDSTREAM LLC (100%),751,"C,W"
2013,Area 41 CGP Facility,1008614,5911 County Road 136,28.651637,-98.000845,Pawnee,BEE COUNTY,TX,78145,EFS MIDSTREAM LLC (100%),2681,"C,W"
2013,Area 51 CGP Facility,1008677,5911 County Road 136,28.651637,-98.000845,Pawnee,BEE COUNTY,TX,78145,EFS MIDSTREAM LLC  (100%),27530,"C,W"
2013,Area 61 CGP Facility,1008679,5911 County Road 136,28.62348,-97.99428,Pawnee,BEE COUNTY,TX,78145,EFS MIDSTREAM LLC (100%),2672,"C,W"
2013,Area 71 CGP Facility,1008680,5911 County Road 136,28.651637,-98.000845,Pawnee,BEE COUNTY,TX,78145,EFS Midstream LLC (100%),37509,"C,W"
2013,Area 72 CGP Facility,1008681,5911 County Road 136,28.651637,-98.000845,5911 County Road 136,BEE COUNTY,TX,78145,EFS MIDSTREAM LLC (100%),25817,"C,W"
2013,Area 81 CGP Facility,1008682,5911 County Road 136,28.62348,-97.99428,Pawnee,BEE COUNTY,TX,78145,EFS MIDSTREAM LLC (100%),2674,"C,W"
2013,Arecibo Landfill,1005158,"Carr. PR-682 Interior, Sector Garrochales, Bo. Factor II",18.466542,-66.625644,Arecibo,ARECIBO,PR,612,Municipality of Arecibo (100%),66571,"C,HH"
2013,Argos Cement LLC,1005458,4000 NORTHWEST COUNTY ROAD 235,29.690671,-82.582134,NEWBERRY,ALACHUA COUNTY,FL,32669,VULCAN MATERIALS CO (100%),650,H
2013,Argos Cement LLC - Harleyville Plant,1002750,463 JUDGE STREET,33.226205,-80.452832,HARLEYVILLE,DORCHESTER COUNTY,SC,29448,Argos USA (100%),709,"C,H"
2013,"Argos San Juan, Corp.",1006164,"Road PR-2, Km 26.7",18.3944,-66.2976,Dorado,DORADO MUNICIPIO,PR,646,ESSROC CEMENT CO (100%),5,"C,H"
2013,Arkansas Loop & Simpson Treating Plants,1001760,,37.0532,-107.7855,DURANGO,LA PLATA,CO,81303,Southern Ute Indian Tribe (51%); Kinder Morgan (49%),13200,"C,W"
2013,Arkansas Oklahoma Gas Corp (AR),1004975,5030 South S Street,35.36353,-94.37573,Fort Smith,SEBASTIAN COUNTY,AR,72903,ARKANSAS OKLAHOMA GAS CORP (100%),10809,"NN,W"
2013,Arkansas Oklahoma Gas Corp (OK),1006481,5030 South S Street,35.36353,-94.37573,Fort Smith,SEBASTIAN COUNTY,AR,72903,ARKANSAS OKLAHOMA GAS CORP (100%),3108,"NN,W"
2013,Arkema Inc.,1006415,2571 Fite Rd,35.27213,-89.97894,Memphis,SHELBY COUNTY,TN,38127,Arkema Inc. (100%),7,"C,PP"
2013,Arkla Basin,1010705,10000 Energy Dr,29.93876,-95.3509,Spring,HARRIS COUNTY,TX,77389,Southwestern Energy (100%),16349,W
2013,Arkoma,1004404,,34.63339,-96.17768,Coalgate,COAL,OK,74538,"MarkWest Energy Partners, LP (100%)",4863,"C,W"
2013,Arkoma Basin,1010205,10000 Energy Dr,29.93876,-95.3509,Spring,HARRIS COUNTY,TX,77389,Southwestern Energy (100%),695440,W
2013,Arlington Compressor Station,1002772,1670 State Highway 13,41.682318,-106.11105,McFadden,ALBANY,WY,82083,"Rockies Express Holdings, LLC (50%); COPREX LLC (25%); P&S Project I, LLC (25%)",845,"C,W"
2013,Arlington Landfill,1002645,800 Mosier Valley Road,32.80776,-97.10376,Euless,TARRANT COUNTY,TX,76040,City of Arlington (100%),228828,"C,HH"
2013,Arlington Valley Energy Facility,1001399,39027 W ELLIOT ROAD,33.3417,-112.8897,ARLINGTON,Maricopa,AZ,85322,"Star West Generation, LLC (100%)",247,"C,D"
2013,Armagh Compressor Station,1000315,862 HORSE THIEF ROAD,40.4319,-79.085,NEW FLORENCE,Indiana,PA,15944,"Texas Eastern Transmission, L.P. (100%)",742,"C,W"
2013,Armstrong Gas Plant,1004087,13072 FM 682,29.133889,-97.039161,Yoakum,DEWITT COUNTY,TX,77995,"Enterprise Hydrocarbons, LP (100%)",132345,"C,NN,W"
2013,"Armstrong Power, LLC",1005709,2313 STATE ROUTE 156,40.6383,-79.3503,SHELOCTA,Armstrong,PA,15774,"IPR-GDF SUEZ North America, Inc. (100%)",69,D
2013,Armstrong World Industries Inc,1006883,4520 Broadway,32.773497,-83.6516,Macon,BIBB COUNTY,GA,31206,ARMSTRONG WORLD INDUSTRIES INC (100%),38,C
2013,Arnold Engineering Development Center,1003846,"100 Kindel Drive, Suite B-327",35.383056,-86.043611,Arnold AFB,COFFEE,TN,37389,,14,C
2013,Arroyo Grande Production Facility,1002978,1821 PRICE CANYON ROAD,35.1814,-120.61965,SAN LUIS OBISPO,SAN LUIS OBISPO COUNTY,CA,93401,Freeport-McMoRan Oil & Gas LLC (100%),25,C
2013,Arsenal Hill Power Plant,1001609,520 NORTH ALLEN,32.5181,-93.7611,SHREVEPORT,Caddo,LA,71101,AMERICAN ELECTRIC POWER (100%),513,D
2013,"Arsenal Resources, LLC 160A Appalachian Basin",1008795,"6031 Wallace Road Ext, Suite 300",39.301158,-80.209822,Wexford,HARRISON COUNTY,PA,15090,PDC Mountaineer LLC (100%),18917,W
2013,Arthur Kill,1000759,4401 VICTORY BLVD,40.5915,-74.2027,Staten Island,Richmond,NY,10314,"NRG Energy, Inc (100%)",368,"C,D"
2013,"Aruba Petroleum, Inc. 420 Fort Worth Syncline",1008356,"555 Republic Dr., Suite 505",33.03064,-96.70539,Plano,COLLIN COUNTY,TX,75074,"Aruba Petroleum, Inc. (100%)",28549,W
2013,Arvada Generation Station,1004760,,44.693959,-105.977750759362,Gillette,CAMPBELL,WY,82718,Basin Electric Power Cooperative (100%),0,C
2013,Arvah B Hopkins,1007189,1125 GEDDIE ROAD,30.4522,-84.4,TALLAHASSEE,Leon,FL,32304,City of Tallahassee (100%),318,"C,D"
2013,Asbury,1007311,21133 UPHILL LANE,37.3596,-94.5913,ASBURY,Jasper,MO,64832,THE EMPIRE DISTRICT ELECTRIC CO (100%),4384,D
2013,Ascend (Decatur Plant),1000158,1050 CHEMSTRAND AVENUE,34.6339,-87.0244,DECATUR,Morgan,AL,35601,Ascend Performance Materials LLC (100%),10367,"C,P,PP"
2013,Ascend Performance Materials LLC,1004962,3000 Old Chemstrand Road,30.596678,-87.251977,Cantonment,ESCAMBIA COUNTY,FL,32533,Ascend Performance Materials LLC (100%),1139,"C,E,P,TT,V"
2013,Ash Grove Cement Company-LEAMINGTON,1002530,19090 West Highway 132,39.563527,-112.197061,Nephi,JUAB,UT,84648,Ash Grove Cement Company (100%),830,"C,H"
2013,Asheville Steam Electric Plant,1007180,200 CP&L DRIVE,35.4714,-82.5431,ARDEN,Buncombe,NC,28704,DUKE ENERGY CORP (100%),4030,"C,D"
2013,Ashtabula,1006751,2133 Lake Road East,41.9086,-80.7697,ASHTABULA,Ashtabula,OH,44004,"FirstEnergy Generation, LLC (100%)",89,"C,D"
2013,Asphalt Hawaii Kalaeloa Asphalt Terminal,1004873,91-550 Malakole Street,21.31948,-158.116295,Kapolei,HONOLULU,HI,96707,GRACE PACIFIC LLC (70%); JAS W GLOVER LTD (30%),2,"C,MM"
2013,Astoria Gas Turbine Power,1000132,31 01 20TH AVE,40.7864,-73.9133,ASTORIA,Queens,NY,11105,"NRG Energy, Inc (100%)",31,"C,D"
2013,Astoria Generating Station,1007053,18-01 20TH AVE,40.7869,-73.9122,ASTORIA,Queens,NY,11105,"Astoria Generating Company, L.P. (100%)",347,"C,D"
2013,Athens,1002577,9375 Harner Rd.,39.24099,-82.12427,Athens,ATHENS COUNTY,OH,45701,"Texas Eastern Transmission, L.P. (100%)",1091,"C,W"
2013,Athens Generating Company,1000101,9300 U S HIGHWAY 9W,42.2728,-73.8492,ATHENS,Greene,NY,12015,MACH Gen (100%),638,D
2013,Athens-Hocking Reclamation Center Landfill,1011217,17970 Diamond Brick Road (Old U.S. Route 33),39.45634,-82.279142,Nelsonville,ATHENS COUNTY,OH,45764,"Kilbarger Construction, Inc. (100%)",71065,HH
2013,Atkinson County - S.R. 50 MSW Landfill,1003450,64 Arthur Davis Jr. Drive,31.3187,-82.9646,Willachoochee,ATKINSON COUNTY,GA,31650,Solid Waste Management Authority of Atkinson County (100%),32393,HH
2013,Atlanta Gas Light Company,1007872,Ten Peachtree Place,33.780708,-84.387782,Atlanta,FULTON,GA,30309,AGL RESOURCES INC (100%),155337,"NN,W"
2013,"Atlantis, MMS Platform ID 02481, Complex ID 1223-1",1004233,,27.19545638,-90.02698449,Offshore,,LA,0,BP America Inc (56%); BHP Billiton Petroleum Holding LLC (44%),11859,"C,W"
2013,Atlas 160/Appalachia Basin - Ohio,1008483,"1000 Commerce Drive, Suite 400",40.4591,-80.19626,Pittsburgh,ALLEGHENY COUNTY,PA,15275,"Atlas Resources Partners, L.P. (100%)",148810,W
2013,Atlas 160A/Appalach Overthrust Basin - PA,1008480,"1000 Commerce Drive, Suite 400",40.4591,-80.19626,Pittsburgh,ALLEGHENY COUNTY,PA,15275,"Atlas Resources Partners, L.P. (100%)",433529,W
2013,Atlas 415/Strawn Basin - Fort Worth,1010235,"1000 Commerce Drive, Suite 400",40.4591,-80.19626,PIttsburgh,ALLEGHENY COUNTY,PA,15275,"Atlas Energy, LP (100%)",13478,W
2013,Atlas 420/Fort Worth Syncline Basin - Jacksboro,1010237,"1000 Commerce Drive, Suite 400",40.4591,-80.19626,Pittsburgh,ALLEGHENY COUNTY,PA,15275,"Atlas Energy, LP (100%)",32512,W
2013,Atmos Energy Corporation - APT Howard,1006523,5430 LBJ Freeway,32.92548,-96.81613,Dallas,DALLAS,TX,75240,ATMOS ENERGY CORP (100%),7332,"C,W"
2013,Atmos Energy Corporation - Colorado,1004794,5430 LBJ Freeway,32.925488,-96.816137,Dallas,DALLAS,TX,75240,Atmos Energy Corp (100%),19449,"NN,W"
2013,Atmos Energy Corporation - Kansas,1001388,5430 LBJ Freeway,32.92548,-96.81613,Dallas,DALLAS,TX,75240,ATMOS ENERGY CORP (100%),16356,"NN,W"
2013,Atmos Energy Corporation - Kentucky,1001389,5430 LBJ Freeway,32.92548,-96.81613,Dallas,DALLAS,TX,75240,ATMOS ENERGY CORP (100%),30592,"NN,W"
2013,Atmos Energy Corporation - Louisiana,1001390,5430 LBJ Freeway,32.92548,-96.81613,Dallas,DALLAS,TX,75240,ATMOS ENERGY CORP (100%),43734,"NN,W"
2013,Atmos Energy Corporation - Mississippi,1001391,5430 LBJ Freeway,32.92548,-96.81613,Dallas,DALLAS,TX,75240,ATMOS ENERGY CORP (100%),30087,"NN,W"
2013,Atmos Energy Corporation - Tennessee,1006887,5430 LBJ Freeway,32.92548,-96.81613,Dallas,DALLAS,TX,75240,Atmos Energy  Corporation (100%),14339,"NN,W"
2013,Atmos Energy Corporation - Texas,1001398,5430 LBJ Freeway,32.92548,-96.81613,Dallas,DALLAS,TX,75240,ATMOS ENERGY CORP (100%),543549,"NN,W"
2013,Atmos Energy Corporation- Virginia,1001402,5420 LBJ Freeway,32.92548,-96.81613,Dallas,DALLAS,TX,75240,ATMOS ENERGY CORP (100%),2732,"NN,W"
2013,Attala Generating Plant,1007247,2500 ATTALA ROAD 4130,33.0142,-89.6758,SALLIS,Attala,MS,39160,ENTERGY CORP (100%),336,"C,D"
2013,Auburndale Peaker Energy Center,1000551,1651 WEST DERBY AVENUE,28.0534,-81.8059,AUBURNDALE,Polk,FL,33823,Calpine Corporation (100%),2,D
2013,Aucilla Area Solid Waste Facility,1005810,1313 SW Greenville Hills Rd.,30.4607,-83.6085,Greenville,MADISON COUNTY,FL,32331,Aucilla Area Solid Waste Administration (100%),42070,HH
2013,Audrain Power Plant,1001379,40897 HIGHWAY P,39.3092,-91.5369,VANDALIA,Audrain,MO,63382,AMEREN CORP (100%),7,D
2013,Augustus Energy Resources LLC,1008053,2016 Grand Avenue,45.78413,-108.56738,Billings,YELLOWSTONE,MT,59102,Augustus Energy Resources LLC (100%),16238,W
2013,"Auria Albemarle, LLC",1002822,313 BETHANY ROAD,35.3982,-80.20477,ALBEMARLE,STANLY COUNTY,NC,28001,INTERNATIONAL AUTOMOTIVE COMPONENTS NORTH AMERICA (100%),116,C
2013,Auriga Polymers Inc.,1001780,1550 Dewberry Road,35.027817,-81.87896,SPARTANBURG,SPARTANBURG COUNTY,SC,29307,AURIGA POLYMERS INC (100%),48,C
2013,Aurora Generating Station,1001397,2909 NORTH EOLA ROAD,41.8151,-88.2265,AURORA,Dupage,IL,60504,NRG ENERGY INC (100%),16,"C,D"
2013,Aux Sable Midstream - Palermo Conditioning Plant,1008835,1638 74th Ave. NW,48.288685,-102.223876,Palermo,MOUNTRAIL,ND,58769,Aux Sable Midstream LLC (100%),1663,"C,NN,W"
2013,Avago Technologies,1008734,4380 Ziegler Road,40.5236,-105.02021,Fort Collins,LARIMER COUNTY,CO,80525,Avago Technologies U.S. Inc. (100%),5,"C,I"
2013,Averitt Booster,1010471,,31.7791,-102.3068,Odessa,ECTOR,TX,79766,Phillips 66 (50%); SPECTRA ENERGY CORP (50%),11,C
2013,Avista Corporation-OR,1003292,1411 E Mission,47.66,-117.39,Spokane,SPOKANE,WA,99220,AVISTA CORP (100%),9830,"NN,W"
2013,Avista Corporation-WA,1003050,1411 E. Mission,47.66,-117.39,Spokane,SPOKANE,WA,99220,AVISTA CORP (100%),15181,"NN,W"
2013,Avon Lake Power Plant,1000843,33570,41.5042,-82.05,AVON LAKE,Lorain,OH,44012,NRG ENERGY INC (100%),7515,"C,D"
2013,"Axiall, Aberdeen",1003903,715 HIGHWAY 25 SOUTH,33.813889,-88.556114,ABERDEEN,MONROE COUNTY,MS,39730,Axiall (100%),31,C
2013,"Axiall, LLC",1007750,1600 VCM PLANT ROAD,30.252222,-93.284444,WESTLAKE,CALCASIEU,LA,70669,GEORGIA GULF CORP (100%),32,"C,X"
2013,"Axiall, LLC",1002350,26100 STATE HIGHWAY 405 SOUTH,30.262255,-91.185837,PLAQUEMINE,IBERVILLE PARISH,LA,70764,AXIALL CORPORATION (100%),618,"C,X"
2013,"B BRAUN MEDICAL, INC",1005872,2525 MCGAW AVE,33.6878,-117.8379,IRVINE,ORANGE COUNTY,CA,92614,B.Braun Medical US (100%),19,C
2013,B C Cobb,1000668,151 N CAUSEWAY,43.2542,-86.2417,MUSKEGON,Muskegon,MI,49445,CMS Energy (100%),446,"C,D"
2013,B L England,1000732,900 NORTH SHORE ROAD,39.29,-74.6339,MARMORA,Cape May,NJ,8223,"RC CAPE MAY HOLDINGS, LLC (100%)",525,"C,D"
2013,B117 COMPRESSOR STATION,1005983,BLEWITT ROAD NEAR HWY 287,33.168391,-97.850395,BRIDGEPORT,WISE,TX,76426,DEVON ENERGY (100%),32,C
2013,BACKRIDGE LANDFILL,1003412,26265 STATE HIGHWAY B,40.0161,-91.5217,LA GRANGE,LEWIS COUNTY,MO,63448,"Republic Services, Inc. (100%)",53638,HH
2013,BADAMI DEVELOPMENT FACILITY,1007807,"70.151006 N, -147.097267 W",70.150997,-147.097369,Badami Unit,NORTH SLOPE BOROUGH,AK,99734,"Savant Alaska, LLC (67.5%); ASRCEX (32.5%)",4007,W
2013,BADGER CREEK LIMITED,1002728,34759 LENCIONI AVE,35.44735,-119.08652,BAKERSFIELD,KERN COUNTY,CA,93308,"Badger Creek, Ltd. (100%)",58,C
2013,BADGER STATE ETHANOL,1002032,820 West 17th Street,42.5949,-89.66691,MONROE,GREEN COUNTY,WI,53566,BADGER STATE ETHANOL (100%),45,"C,II,PP"
2013,BADLANDS SANITARY LANDFILL,1000046,31125 IRONWOOD AVENUE,33.9541,-117.1168,MORENO VALLEY,RIVERSIDE COUNTY,CA,92555,County of Riverside (100%),56272,"C,HH"
2013,BAILEY CMP STN,1006833,2844 County Road 3115,33.478057,-96.147923,BAILEY,FANNIN,TX,75413,"ENERGY TRANSFER PARTNERS, LP (100%)",14548,"C,W"
2013,BAKERSFIELD CITY LANDFILL,1007654,4200 PANORAMA DRIVE,35.4142,-118.9491,BAKERSFIELD,KERN COUNTY,CA,93306,City of Bakersfield (100%),7986,HH
2013,BAKERSFIELD METROPOLITAN SANITARY LANDFILL,1002896,2951 Neumarkel Road,35.3436,-118.7573,Edison,KERN COUNTY,CA,93220,Kern County Waste Management Department (100%),33077,HH
2013,BALDWIN COUNTY SOLID WASTE,1007875,15140 COUNTY ROAD 49,30.443309,-87.774276,SUMMERDALE,BALDWIN COUNTY,AL,36580,Baldwin County Solid Waste (100%),169046,HH
2013,BALL STATE UNIVERSITY,1004171,2000 W UNIVERSITY AVE,40.19765,-85.40893,MUNCIE,DELAWARE COUNTY,IN,47306,State Of indiana (100%),45,C
2013,"BARGATH, INC- HYRUP PROD FACILITY",1002944,,39.369139,-108.06329,PARACHUTE,GARFIELD COUNTY,CO,81635,"Williams Partners, LP (100%)",11,C
2013,"BARGATH, INC.- PARACHUTE",1002943,,39.487297,-108.111356,"PARACHUTE, 3.4 MI NW OF",GARFIELD COUNTY,CO,81635,"WILLIAMS PARTNERS, LP (100%)",42538,"C,PP,W"
2013,BARRICK WESTERN 102 POWER PLANT,1004748,2555 WALTHAM WAY,39.55904,-119.51061,MCCARRAN,STOREY COUNTY,NV,89434,BARRICK GOLD CORP (100%),56,C
2013,BARROW UTILITIES & ELECTRIC,1005395,1295 AGVIK STREET,71.292071,-156.77847,BARROW,NORTH SLOPE,AK,99723,"BARROW UTILITIES & ELECTRIC COOPERATIVE, INC (100%)",21,C
2013,BARSTOW SANITARY LANDFILL,1004406,"32553 BARSTOW ROAD, 5 MILES S OF BARSTOW",34.837222,-117.017655,BARSTOW,SAN BERNARDINO COUNTY,CA,92311,COUNTY OF SAN BERNARDINO SOLID WASTE MANAGEMENT DIV (100%),14058,HH
2013,BARTHOLOMEW CO LANDFILL,1002168,11110 E 25th Street,39.2283,-85.8009,COLUMBUS,BARTHOLOMEW COUNTY,IN,47201,Bartholomew County Solid Waste Management District (100%),30132,HH
2013,BARTHOLOMEW COUNTY LANDFILL II,1002167,811 E CR 450 S,39.134761,-85.93343,COLUMBUS,BARTHOLOMEW,IN,47201,Bartholomew County Solid Waste Management District (100%),56758,"C,HH"
2013,BARTON COUNTY SANITARY LANDFILL,1002401,350 NE 30 ROAD,38.4082,-98.7054,GREAT BEND,BARTON COUNTY,KS,67530,Barton County (100%),32932,"C,HH"
2013,BARTOW COUNTY MSWL,1006619,40 ALLATOONA DAM RD SE,34.14457,-84.76363,CARTERSVILLE,BARTOW,GA,30120,Bartow County Government (100%),16633,HH
2013,BASF BEAUMONT AGRO PLANT,1005850,14385 WEST PORT ARTHUR ROAD,29.971389,-94.053333,BEAUMONT,JEFFERSON COUNTY,TX,77705,BASF Corporation (100%),26,C
2013,BASF CORP - GEISMAR SITE,1004208,8404 RIVER ROAD HIGHWAY 75,30.209725,-91.012892,GEISMAR,ASCENSION PARISH,LA,70734,BASF Corporation (100%),1218,"C,X"
2013,BASF CORP - PASADENA PLANT,1002613,4403 LA PORTE FWY,29.731639,-95.152083,PASADENA,HARRIS,TX,77501,BASF Corporation (100%),43,C
2013,BASF CORP ATTAPULGUS OPS,1007885,141 ENGELHARD RD,30.738055,-84.49394,ATTAPULGUS,DECATUR COUNTY,GA,39815,BASF Corporation (100%),49,C
2013,BASF CORP SAVANNAH OPERATIONS,1002622,1800 EAST PRESIDENT STREET,32.07069,-81.0604,SAVANNAH,CHATHAM COUNTY,GA,31404,BASF Corporation (100%),26,C
2013,BASF CORPORATION,1003551,1379 CIBA RD,31.279,-87.9955,MC INTOSH,WASHINGTON COUNTY,AL,36553,BASF Corporation (100%),30,C
2013,BASF CORPORATION,1000017,3150 HWY JJ,39.834118,-91.436791,PALMYRA,MARION,MO,63461,BASF Corporation (100%),254,C
2013,BASF Corporation,1000356,2525 SOUTH KENSINGTON AVE,41.085542,-87.880542,KANKAKEE,KANKAKEE COUNTY,IL,60901,BASF CORPORATION (100%),26,C
2013,BASF Corporation,1003325,1277 Dedrick Road,32.852745,-83.232553,McIntyre,WILKINSON COUNTY,GA,31054,BASF Corporation (100%),128,C
2013,BASF Corporation,1006829,Highway 18 Spur,32.890393,-83.344945,Gordon,WILKINSON COUNTY,GA,31031,BASF Corporation (100%),24,C
2013,BASF Corporation,1005378,205 South James Street,39.71161,-75.60906,Newport,NEW CASTLE COUNTY,DE,19804,BASF Corporation (100%),14,C
2013,BASF FREEPORT SITE,1001934,602 COPPER ROAD,29.002075,-95.399777,FREEPORT,BRAZORIA COUNTY,TX,77541,BASF Corporation (100%),286,C
2013,BASF TOTAL PETROCHEMICALS LLC,1006543,7501 GULFWAY DR,29.951649,-93.887272,PORT ARTHUR,JEFFERSON,TX,77642,BASF CORP (100%),12221,"C,X"
2013,BASIC AMERICAN FOODS,1006355,434 SOUTH EMERSON AVENUE,43.37523,-112.127612,SHELLEY,BINGHAM COUNTY,ID,83274,Basic American Foods (100%),14,C
2013,BASIC AMERICAN FOODS,1004740,415 W. COLLINS RD.,43.199515,-112.382812,BLACKFOOT,BINGHAM,ID,83221,Basic American Foods (100%),24,C
2013,BATH LANDFILL,1002766,11 DETRITUS DR,43.94,-69.82,BATH,SAGADAHOC,ME,4530,City of Bath (100%),13027,"C,HH"
2013,BATTLE CREEK LANDFILL,1002639,219 LANDFILL DRIVE,38.622463,-78.586795,LURAY,PAGE COUNTY,VA,22835,Page County (100%),55812,"C,HH"
2013,BAXTER HEALTHCARE SA / BAXTER HEALTHCARE OF PUERTO RICO,1007735,ROAD 3 KM 142.5,17.9631,-66.1503,GUAYAMA,GUAYAMA MUNICIPIO,PR,784,BAXTER INTERNATIONAL INC (100%),7,C
2013,BAY COUNTY WASTE - TO - ENERGY FACILITY,1004618,6510 BAY LINE DRIVE,30.2656,-85.5214,PANAMA CITY,BAY COUNTY,FL,32404,Bay County (100%),577,C
2013,BAYER CROPSCIENCE,1001918,8400 HAWTHORN ROAD,39.121472,-94.473417,KANSAS CITY,JACKSON COUNTY,MO,64120,BAYER GROUP (100%),19,C
2013,BAYOU SALE PRODUCTION FACILITY - BAYOU SALE FIELD,1002999,6972 HWY 317,29.602012,-91.52483,FRANKLIN,SAINT MARY,LA,70538,EnergyQuest II LLC (100%),2,C
2013,BAYTOWN LANDFILL,1007684,4791 TRI CITY BEACH RD,29.680398,-94.930647,BAYTOWN,CHAMBERS,TX,77520,"Waste Management, Inc. (100%)",60189,HH
2013,BAYVIEW LANDFILL,1006417,"10800 South State Road 68, 764965",39.95249,-111.95619,Elberta,UTAH,UT,84626,South Utah Valley Solid Waste District (100%),60481,"C,HH"
2013,BAZOR RIDGE GAS PLANT,1002278,595 CEAMON PITTMAN ROAD,31.5436,-88.64131,WAYNESBORO,WAYNE COUNTY,MS,39367,"AMERICAN MIDSTREAM PARTNERS, LP (100%)",19,C
2013,"BD LAPLACE, LLC",1000330,138 HWY 3217,30.03686,-90.46454,LAPLACE,ST. JOHN THE BAPTIST PARISH,LA,70068,ArcelorMittal USA LLC (100%),18,"C,Q"
2013,BEACON HEATING,1006384,541 MADISON STREET,42.33811,-83.04382,DETROIT,WAYNE COUNTY,MI,48226,"Thermal Ventures II, L.P. (100%)",23,C
2013,BEAR ISLAND PAPER COMPANY LLC,1005038,10026 OLD RIDGE ROAD,37.8181,-77.4375,ASHLAND,HANOVER COUNTY,VA,23005,Bear Island Paper WB LLC (100%),1892,C
2013,BEAR MOUNTAIN LIMITED,1006139,34759 LENCIONI AVE,35.44735,-119.08652,BAKERSFIELD,KERN COUNTY,CA,93308,BEAR MOUNTAIN LTD (100%),50,C
2013,BEAUMONT POLYETHYLENE PLANT,1006416,11440 HWY 90 WEST,30.068247,-94.23005,BEAUMONT,JEFFERSON COUNTY,TX,77713,EXXONMOBIL CORP (100%),11,C
2013,BEAVER CREEK GAS PLANT,1007568,380 Beaver Creek Road,42.8464,-108.318,RIVERTON,FREMONT,WY,82501,DEVON ENERGY (100%),3014,"C,NN,W"
2013,BEECH HOLLOW SANITARY LANDFILL *,1004815,28 AW LONG ROAD,39.12929,-82.465678,WELLSTON,JACKSON,OH,45692,"Rumpke Waste, Inc. (100%)",269193,"C,HH"
2013,BEECHER LANDFILL,1003744,1055 W GOODENOW RD,41.38479,-87.63704,BEECHER,WILL,IL,60401,"Waste Management, Inc. (100%)",16340,HH
2013,BELLEFIELD BOILER PLANT,1005525,,40.442121,-79.949221,PITTSBURGH,ALLEGHENY COUNTY,PA,15213,BELLEFIELD BOILER PLANT (100%),37,C
