REPORTING YEAR,FACILITY NAME,GHGRP ID,REPORTED ADDRESS,LATITUDE,LONGITUDE,CITY NAME,COUNTY NAME,STATE,ZIP CODE,PARENT COMPANIES,VALUE,SUBPARTS
2017,#540 BONANZA CREEK ENERGY - DENVER BASIN,1000355,"410 17th Street, Suite 1500",39.74431,-104.98858,Denver,DENVER COUNTY,CO,80202,BONANZA CREEK ENERGY INC (100%),145971,W
2017,17Z Gas Plant - Chevron USA Inc.,1012147,22845 Highway 33,35.3181871,-119.6338842,McKittrick,,CA,93251,CHEVRON CORP (100%),9120,"C,NN,W"
2017,220 Gulf Coast Basin DEC,1009238,333 West Sheridan Ave,35.4711808,-97.516602,Oklahoma City,,OK,73102,DEVON ENERGY CORP (100%),599083,W
2017,230 Arkla Basin QEP Energy Company,1009283,1050 17th Street Unit 800,39.7480769,-104.994564,Denver,,CO,80265,QEP RESOURCES INC (100%),34211,W
2017,23rd and 3rd,1000112,730 3rd Avenue,40.663,-74,BROOKLYN,Kings,NY,11232,NEW YORK POWER AUTHORITY (100%),52646,"C,D"
2017,260 - East Texas Basin Gathering/Boosting,1012156,737 Eldridge Parkway,29.77455,-95.61949,Houston,HARRIS COUNTY,TX,77079,BP AMERICA INC (100%),33504,W
2017,260 East Texas Basin - BP America Production Company,1009170,501 Westlake Park Blvd.,29.78037,-95.6295,Houston,HARRIS COUNTY,TX,77079,BP AMERICA INC (100%),46456,W
2017,31st Street Landfill,1003742,11700 W 31ST ST,41.835129,-87.915924,WESTCHESTER,COOK COUNTY,IL,60154,ARCHDIOCESE OF CHICAGO (100%),147,"C,HH"
2017,345 - Arkoma Basin Gathering/Boosting,1012155,737 Eldridge Parkway,29.77455,-95.61949,Houston,HARRIS COUNTY,TX,77079,BP AMERICA INC (100%),65295,W
2017,345 Arkoma Basin - BP America Production Company,1009169,501 Westlake Park Blvd.,29.78037,-95.6295,Houston,HARRIS COUNTY,TX,77079,BP AMERICA INC (100%),62646,W
2017,345 Arkoma Bravo NR,1011963,"1323 East 71st Street, Suite 400",36.062167,-95.974333,Tulsa,,OK,74136,NATURAL GAS PARTNERS (100%),20121,W
2017,355 Chatauque Platform,1009264,701 Cedar Lake Blvd,35.56719,-97.49827,Oklahoma City,OKLAHOMA COUNTY,OK,73114,CHAPARRAL ENERGY INC (100%),81,W
2017,355 Chautauqua Platform DEC,1008286,333 West Sheridan Ave,35.4711808,-97.516602,Oklahoma City,,OK,73102,DEVON ENERGY CORP (100%),1,W
2017,360 Anadarko Basin,1009265,701 Cedar Lake Blvd,35.56719,-97.49827,Oklahoma City,OKLAHOMA COUNTY,OK,73114,CHAPARRAL ENERGY INC (100%),75072,W
2017,360 Anadarko Basin - BP America Production Company,1008558,501 Westlake Park Blvd,29.78037,-95.6295,Houston,HARRIS COUNTY,TX,77079,BP AMERICA INC (100%),18962,W
2017,360 Anadarko Basin DEC,1008287,333 West Sheridan Ave,35.4711808,-97.516602,Oklahoma City,,OK,73102,DEVON ENERGY CORP (100%),284888,W
2017,395 Williston Basin QEP Energy Company,1009281,"1050 17th Street, Suite 500",39.74846,-104.99402,Denver,DENVER COUNTY,CO,80265,QEP RESOURCES INC (100%),330896,W
2017,3M BROWNWOOD,1003188,4501 HIGHWAY 377 SOUTH,31.671177,-98.996513,BROWNWOOD,BROWN,TX,76801,3M CO (100%),36165,"C,N"
2017,3M CO,1005043,,44.951,-92.9959,MAPLEWOOD,RAMSEY COUNTY,MN,55144,3M CO (100%),76516,C
2017,3M CO - GUIN,1003739,6675 US HIGHWAY 43,33.96548,-87.89936,GUIN,MARION COUNTY,AL,35563,3M CO (100%),25108,"C,N"
2017,3M CO - WAUSAU DOWNTOWN,1007698,144 ROSECRANS ST,44.95018,-89.63766,WAUSAU,MARATHON,WI,54401,3M CO (100%),42577,C
2017,3M COMPANY,1004206,1400 STATE DOCKS RD.,34.641667,-87.038611,DECATUR,MORGAN COUNTY,AL,35609,3M CO (100%),44689,"C,L,OO"
2017,3M CORDOVA,1006665,22614 ROUTE 84 NORTH,41.755,-90.284167,CORDOVA,ROCK ISLAND,IL,61242,3M CO (100%),27970,"C,L,OO"
2017,3M Cottage Grove Center - Site,1004836,10746 Innovation Rd,44.789444,-92.908333,Cottage Grove,WASHINGTON COUNTY,MN,55016,3M CO (100%),28926,"C,L,N,OO"
2017,3M INDUSTRIAL MINERAL PRODUCTS DIVISION,1003408,3110 WALTERS DRIVE,34.708919,-92.239492,LITTLE ROCK,PULASKI COUNTY,AR,72216,3M CO (100%),29665,C
2017,3M MAGNETIC TAPE MANUFACTURING DIVISION,1004914,905-915 ADAMS STREET SOUTHEAST,44.879677,-94.359598,HUTCHINSON,MCLEOD COUNTY,MN,55350,3M CO (100%),37867,C
2017,3M NEVADA PLANT,1004804,2120 E. AUSTIN,37.834476,-94.330625,NEVADA,VERNON COUNTY,MO,64772,3M CO (100%),30498,C
2017,415 Strawn Basin DEC,1009276,333 West Sheridan Ave,35.4711808,-97.516602,Oklahoma City,,OK,73102,DEVON ENERGY CORP (100%),92150,W
2017,420 Fort Worth Syncline DEC,1008289,333 West Sheridan Ave,35.4711808,-97.516602,Oklahoma City,,OK,73102,DEVON ENERGY CORP (100%),155452,W
2017,430 Permian Basin DEC,1008290,333 West Sheridan Ave,35.4711808,-97.516602,Oklahoma City,,OK,73102,DEVON ENERGY CORP (100%),218291,W
2017,430 Permian Basin GB DEC,1012353,333 West Sheridan Ave,35.46646,-97.51827,Oklahoma City,OKLAHOMA COUNTY,OK,73102,DEVON ENERGY CORP (100%),21488,W
2017,430 Permian Basin QEP Energy Company,1009691,1050 17th Street Unit 800,29.75608,-95.36433,Denver,HARRIS COUNTY,CO,80265,QEP RESOURCES INC (100%),150974,W
2017,48th Street Peaking Station,1001106,491 E 48TH ST,42.7553,-86.0853,HOLLAND,Allegan,MI,49423,HOLLAND BOARD OF PUBLIC WORKS (100%),50948,"C,D"
2017,50 Buttes Gas Plant,1012037,3669 South Hwy 50,43.760929,-105.785087,Gillette,,WY,82716,THUNDER CREEK GAS SERVICES LLC (100%),39664,"C,W"
2017,515 Powder River Basin,1012569,"1775 Sherman, Suite 1700",39.7312095,-104.9826965,Denver,,CO,80203,WOLD ENERGY PARTNERS LLC (100%),17389,W
2017,515 Powder River Basin DEC,1009278,333 West Sheridan Ave,35.4711808,-97.516602,Oklahoma City,,OK,73102,DEVON ENERGY CORP (100%),117675,W
2017,535 Green River Basin - BP America Production Company,1008622,501 Westlake Park Blvd.,29.78037,-95.6295,Houston,HARRIS COUNTY,TX,77079,BP AMERICA INC (100%),67464,W
2017,535 Green River Basin QEP Energy Company,1008295,"1050 17th Street, Suite 500",39.74846,-104.99402,Denver,DENVER COUNTY,CO,80265,QEP RESOURCES INC (100%),4699,W
2017,575 Uinta Basin QEP Energy Company,1009282,"1050 17th Street, Suite 500",39.7480769,-104.994564,Denver,,CO,80265,QEP RESOURCES INC (100%),3342,W
2017,580 - San Juan Basin Gathering/Boosting,1012154,737 Eldridge Parkway,29.77455,-95.61949,Houston,HARRIS COUNTY,TX,77079,BP AMERICA INC (100%),157711,W
2017,580 San Juan Basin - BP America Production Company,1009076,501 Westlake Park Blvd.,29.78037,-95.6295,Houston,HARRIS COUNTY,TX,77079,BP AMERICA INC (100%),530594,W
2017,59th Street,1000766,850 12TH AVE,40.7711,-73.9911,NEW YORK,New York,NY,10019,CONSOLIDATED EDISON INC (100%),218624,C
2017,69TH ST WWTP,1007733,2525 SSGT MACARIO GARCIA DR,29.75579,-95.29791,HOUSTON,HARRIS COUNTY,TX,77020,CITY OF HOUSTON (100%),22684,C
2017,745 San Joaquin Basin Chevron USA Inc.,1008499,6001 Bollinger Canyon Rd.,37.795963,-122.022317,San Ramon,CONTRA COSTA,CA,94583,CHEVRON CORP (100%),12148,W
2017,74th Street,1000767,506 E 75TH ST,40.768,-73.9515,NEW YORK,New York,NY,10021,CONSOLIDATED EDISON INC (100%),194720,C
2017,A B Brown Generating Station,1001033,8511 WELBORN ROAD,37.9053,-87.715,MOUNT VERNON,Posey,IN,47620,VECTREN CORP (100%),2155623,D
2017,A&AT LLC WAYNESBORO FACILITY,1002342,400 DU PONT BOULEVARD,38.061111,-78.883333,WAYNESBORO,WAYNESBORO CITY,VA,22980,KOCH INDUSTRIES INC (100%),32710,C
2017,AAP ST MARYS CORP,1005445,1100 MCKINLEY RD.,40.55359,-84.3723,SAINT MARYS,AUGLAIZE COUNTY,OH,45885,HITACHI AMERICA LTD (100%),38121,C
2017,ABBOTT PARK FACILITY,1002983,100 ABBOTT PARK RD,42.30227,-87.89065,ABBOTT PARK,LAKE COUNTY,IL,60064,ABBOTT LABORATORIES (100%),55432,C
2017,ABBVIE LTD.,1007514,RD 2 KM 58.0,18.433237,-66.570509,BARCELONETA,BARCELONETA MUNICIPIO,PR,617,ABBVIE INC (100%),81830,C
2017,ABC COKE,1004511,ONE RAILROAD AVENUE,33.580769,-86.781281,TARRANT,JEFFERSON,AL,35217,DRUMMOND CO INC (100%),166246,"C,Q"
2017,"ABE South Dakota, LLC - Aberdeen",1002047,38469 133rd Street,45.459444,-98.5325,Aberdeen,BROWN COUNTY,SD,57401,ADVANCED BIOENERGY LLC (100%),68409,C
2017,"ABE South Dakota, LLC - Huron",1002074,694 W PARK AVE NW,44.374508,-98.253288,HURON,BEADLE COUNTY,SD,57350,ADVANCED BIOENERGY LLC (100%),42603,C
2017,ABERDEEN ENERGY LLC,1005353,13435 370TH AVENUE,45.442417,-98.787139,MINA,EDMUNDS COUNTY,SD,57451,GLACIAL LAKES CORN PROCESSORS (100%),189569,C
2017,ABERDEEN PROVING GROUND-Aberdeen Area & Edgewood Area,1006971,4304 Susquehanna Ave,39.395404,-76.30773,APG,HARFORD COUNTY,MD,21005,,83458,C
2017,ABSOLUTE ENERGY LLC,1002627,1372 STATELINE ROAD,43.49951,-92.91709,ST ANSGAR (MONA),MITCHELL COUNTY,IA,50472,ABSOLUTE ENERGY LLC (100%),176697,"C,II"
2017,AC 857 A,1002685,,26.29555555,-94.89777777,Offshore,,TX,0,SHELL OIL CO (100%),204125,"C,W"
2017,ACE ETHANOL LLC,1004761,815 WEST MAPLE STREET,44.9589,-90.9608,STANLEY,CHIPPEWA,WI,54768,ACE ETHANOL LLC (100%),73331,"C,PP"
2017,ACME BRICK CO ELGIN PLANT,1005601,1776 OLD MCDADE RD,30.32903,-97.29207,ELGIN,BASTROP COUNTY,TX,78621,BERKSHIRE HATHAWAY INC (100%),26454,C
2017,ACME GYPSUM FACILITY,1005046,4164 HIGHWAY 285,34.323944,-99.818194,QUANAH,HARDEMAN COUNTY,TX,79252,KOCH INDUSTRIES INC (100%),37752,C
2017,ADA COGENERATION,1002731,7575 FULTON STREET EAST,42.955455,-85.479053,ADA,KENT,MI,49355,ADA COGEN HOLDINGS LP (99.5%),95153,C
2017,"ADA Carbon Solutions (Red River), LLC",1003752,201 Red River Mine Road,32.005405,-93.387829,Coushatta,RED RIVER PARISH,LA,71019,ADA CARBON SOLUTIONS LLC (100%),183754,C
2017,ADKINS ENERGY LLC,1003422,4350 WEST GALENA ROAD,42.3586,-89.80342,LENA,STEPHENSON COUNTY,IL,61048,ADKINS ENERGY LLC (100%),85355,C
2017,ADM - MANKATO,1002154,2019 3RD AVENUE,44.186805,-93.995493,MANKATO,BLUE EARTH COUNTY,MN,56001,ARCHER DANIELS MIDLAND CO (100%),129010,C
2017,ADM CORN PROCESSING,1006208,1251 BEAVER CHANNEL PARKWAY,41.818117,-90.214731,CLINTON,CLINTON COUNTY,IA,52732,ARCHER DANIELS MIDLAND CO (100%),1924851,"C,TT"
2017,ADM CORN PROCESSING,1006047,1350 WACONIA AVENUE SOUTHWEST,41.928594,-91.687203,CEDAR RAPIDS,LINN COUNTY,IA,52404,ARCHER DANIELS MIDLAND CO (100%),3034029,"C,II"
2017,ADM Deerfield,1010610,17700 South Highway T,37.80725,-94.585301,Deerfield,VERNON,MO,64741,ARCHER DANIELS MIDLAND CO (100%),32832,C
2017,ADM Fostoria,1011855,608 FINDLAY ROAD,41.1494,-83.43295,Fostoria,HANCOCK COUNTY,OH,44830,ARCHER DANIELS MIDLAND CO (100%),26784,C
2017,ADM MILLING COMPANY,1000034,1935 EAST EUCLID AVENUE,41.626329,-93.583205,DES MOINES,POLK COUNTY,IA,50313,ARCHER DANIELS MIDLAND CO (100%),144184,C
2017,ADM QUINCY,1000376,2100 GARDNER EXPRESSWAY,39.903884,-91.410552,QUINCY,ADAMS COUNTY,IL,62305,ARCHER DANIELS MIDLAND CO (100%),117325,C
2017,ADM SOUTHERN CELLULOSE PROD.IN,1006080,103 W 45TH ST,34.997921,-85.318581,CHATTANOOGA,HAMILTON COUNTY,TN,37410,ARCHER DANIELS MIDLAND CO (100%),30306,C
2017,ADM Valdosta,1011961,1841 Clay Road,30.8325,-83.248056,Valdosta,LOWNDES COUNTY,GA,31601,ARCHER DANIELS MIDLAND CO (100%),40361,C
2017,ADS/MCLEAN COUNTY LANDFILL,1002094,2105 W OAKLAND AVE,40.465534,-89.03273,BLOOMINGTON,MCLEAN,IL,61704,REPUBLIC SERVICES INC (100%),15,"C,HH"
2017,ADVANCED DISPOSAL CRANBERRY CREEK LANDFILL LLC,1001845,2510 ENGEL ROAD,44.4093,-89.854855,WISCONSIN RAPIDS,WOOD,WI,54495,ADS WASTE HOLDINGS INC (100%),118,"C,HH"
2017,ADVANCED DISPOSAL EMERALD PARK LANDFILL LLC,1007212,W124 S10629 SOUTH 124TH STREET,42.849682,-88.07639,MUSKEGO,WAUKESHA COUNTY,WI,53132,ADS WASTE HOLDINGS INC (100%),15,"C,HH"
2017,ADVANCED DISPOSAL GLACIER RIDGE LANDFILL LLC,1007195,N7296 HWY V,43.459531,-88.554139,HORICON,DODGE COUNTY,WI,53032,ADS WASTE HOLDINGS INC (100%),53,"C,HH"
2017,"ADVANCED DISPOSAL HICKORY MEADOWS LANDFILL, LLC",1001847,W3105 SCHNEIDER RD,44.107451,-88.194894,HILBERT,CALUMET,WI,54129,ADS WASTE HOLDINGS INC (100%),6,"C,HH"
2017,"ADVANCED DISPOSAL MALLARD RIDGE LANDFILL, INC",1002038,W8470 STATE RD 11,42.643578,-88.717968,DELEVAN,WALWORTH,WI,53115,ADS WASTE HOLDINGS INC (100%),27,"C,HH"
2017,"ADVANCED DISPOSAL MAPLE HILL LANDFILL, LLC",1003038,31226 INTREPID ROAD,39.73376,-92.53825,MACON,MACON COUNTY,MO,63552,ADS WASTE HOLDINGS INC (100%),53,"C,HH"
2017,ADVANCED DISPOSAL ORCHARD HILLS LANDFILL INC,1001637,8290 HIGHWAY 251,42.14,-89.085,DAVIS JUNCTION,OGLE,IL,61020,ADS WASTE HOLDINGS INC (100%),54,"C,HH"
2017,ADVANCED DISPOSAL ROLLING HILLS LANDFILL INC,1001843,175 COUNTY ROAD 37 NE,45.24949,-93.87488,BUFFALO,WRIGHT COUNTY,MN,55313,ADS WASTE HOLDINGS INC (100%),15,"C,HH"
2017,ADVANCED DISPOSAL SEVEN MILE CREEK LANDFILL LLC,1006964,8001 OLSON DR,44.837534,-91.367144,EAU CLAIRE,EAU CLAIRE,WI,54703,ADS WASTE HOLDINGS INC (100%),22,"C,HH"
2017,ADVANCED DISPOSAL VALLEY VIEW LANDFILL INC,1006963,1363 BEAR RD,39.822266,-89.043754,DECATUR,MACON COUNTY,IL,62522,ADS WASTE HOLDINGS INC (100%),71,"C,HH"
2017,ADVANCED DISPOSAL ZION LANDFILL,1005985,701 GREEN BAY ROAD,42.483242,-87.873878,ZION,LAKE,IL,60099,ADS WASTE HOLDINGS INC (100%),86,"C,HH"
2017,ADVANSIX INC - CHESTERFIELD PLANT,1000627,4101 BERMUDA HUNDRED RD,37.33963,-77.2884,CHESTER,CHESTERFIELD COUNTY,VA,23836,ADVANSIX INC (100%),58494,C
2017,ADVANSIX INCORPORATED - HOPEWELL,1000630,905 EAST RANDOLPH ROAD,37.3016,-77.2719,HOPEWELL,HOPEWELL CITY,VA,23860,ADVANSIX INC (100%),1040132,"C,G,PP"
2017,AES - PUERTO RICO COGENERATION PLANT,1005310,"KM 142, RTE. #3 BO. JOBOS",17.9451,-66.1503,GUAYAMA,GUAYAMA MUNICIPIO,PR,785,AES CORP (100%),2462578,C
2017,AES Alamitos,1001444,690 N STUDEBAKER ROAD,33.7688,-118.1009,LONG BEACH,Los Angeles,CA,90803,AES CORP (100%),591336,D
2017,AES HAWAII INC,1005972,91-086 KAOMI LP,21.301222,-158.107306,KAPOLEI,HONOLULU COUNTY,HI,96707,AES CORP (100%),1462443,C
2017,AES Huntington Beach,1001447,21730 NEWLAND ST,33.6436,-117.9788,HUNTINGTON BEACH,Orange,CA,92646,AES CORP (100%),256287,D
2017,AES Redondo Beach,1001450,1100 N HARBOR DRIVE,33.8504,-118.395,REDONDO BEACH,Los Angeles,CA,90277,AES CORP (100%),352104,D
2017,"AES SHADY POINT, LLC",1007781,3 MILES E. OF JUNCTION 31,35.1929,-94.6469,PANAMA,LE FLORE COUNTY,OK,74951,AES CORP (100%),2099141,"C,PP"
2017,AES Warrior Run,1001223,11600 MEXICO FARMS RD SE,39.5944,-78.7456,CUMBERLAND,Allegany,MD,21502,AES CORP (100%),1223740,"C,D,PP"
2017,AFTON CHEMICAL CORP,1003853,501 MONSANTO AVE.,38.602021,-90.16831,SAUGET,ST. CLAIR COUNTY,IL,62201,NEWMARKET CORP (100%),49595,C
2017,AG Energy,1007551,21 Entrance Avenue,44.7258,-75.4417,Ogdensburg,ST. LAWRENCE COUNTY,NY,13669,AG ENERGY LP (100%),8096,"C,D"
2017,AG PROCESSING INC,1002069,4739 380TH ST,43.09748,-94.65182,EMMETSBURG,PALO ALTO COUNTY,IA,50536,AG PROCESSING INC (100%),23245,C
2017,AG PROCESSING INC A COOP-MANNING,1002070,1000 300TH STREET,41.920794,-95.070791,MANNING,CARROLL,IA,51455,AG PROCESSING INC (100%),18773,C
2017,AG PROCESSING INC-EAGLE GROVE,1006054,500 NORTH COMMERCIAL AVENUE,42.66861,-93.90333,EAGLE GROVE,WRIGHT COUNTY,IA,50533,AG PROCESSING INC (100%),107572,C
2017,AG PROCESSING INC-SHELDON,1002408,804 2ND AVE,43.182248,-95.856177,SHELDON,OBRIEN,IA,51201,AG PROCESSING INC (100%),26302,C
2017,AG PROCESSING INCORPORATED A COOPERATIVE,1002291,800 DIAGONAL STREET,44.93297,-96.05744,DAWSON,LAC QUI PARLE,MN,56232,AG PROCESSING INC (100%),34341,C
2017,AGC FLAT GLASS N AMERICA INC,1007333,201 DUNCANNON LANE,37.70035,-84.26846,RICHMOND,MADISON COUNTY,KY,40475,AGC GLASS CO NORTH AMERICA (100%),187202,"C,N"
2017,AGC FLAT GLASS NORTH AMERICA SPRING HILL PLANT,1004631,20400 NORTH WEBSTER STREET,38.759188,-94.825252,SPRING HILL,JOHNSON,KS,66083,AGC GLASS CO NORTH AMERICA (100%),107361,"C,N"
2017,AGC-GREENLAND FLATGLASS PLANT,1005824,600 AFG ROAD,36.497,-82.77946,CHURCH HILL,HAWKINS COUNTY,TN,37642,AGC GLASS CO NORTH AMERICA (100%),132920,"C,N"
2017,AGP SOY/CORN PROCESSING,1002067,2801 E 7TH ST,40.58971,-98.33974,HASTINGS,ADAMS COUNTY,NE,68901,AG PROCESSING INC (100%),198396,C
2017,AGRI ENERGY LLC,1005284,502 SOUTH WALNUT AVENUE,43.648333,-96.224444,LUVERNE,ROCK COUNTY,MN,56156,GEVO (100%),39562,"C,II"
2017,AGRIUM US BORGER NITROGEN OPERATIONS,1002380,9201 FM 1551,35.6417,-101.4228,BORGER,HUTCHINSON COUNTY,TX,79007,AGRIUM US INC (100%),852058,"C,G,PP"
2017,AGRIUM US INC,1001154,3010 CONDA ROAD,42.739417,-111.541421,SODA SPRINGS,CARIBOU,ID,83276,AGRIUM US INC (100%),107417,"C,Z"
2017,"AIR LIQUID LARGE INDUSTRIES US, LP",1006430,324 W EL SEGUNDO BLVD,33.916355,-118.418634,EL SEGUNDO,LOS ANGELES,CA,90245,AMERICAN AIR LIQUIDE HOLDINGS INC (100%),629814,P
2017,AIR LIQUIDE - CORPUS CHRISTI SMR,1003724,5880 UP RIVER ROAD,27.813911,-97.472347,CORPUS CHRISTI,NUECES,TX,78407,AMERICAN AIR LIQUIDE HOLDINGS INC (100%),375203,P
2017,AIR LIQUIDE - FREEPORT HYCO PLANT,1003730,2398 VICTORIA ROAD,28.98037,-95.38396,FREEPORT,BRAZORIA COUNTY,TX,77541,AMERICAN AIR LIQUIDE HOLDINGS INC (100%),187346,"C,P"
2017,AIR LIQUIDE - PORT NECHES ASU COGENERATION PLANT,1003780,2121 PARK STREET,29.981116,-93.952389,PORT NECHES,JEFFERSON COUNTY,TX,77651,AMERICAN AIR LIQUIDE HOLDINGS INC (100%),195010,C
2017,AIR LIQUIDE AMERICA CORP,1003910,2292 Callahan Rd,32.4478,-94.6875,LONGVIEW,HARRISON COUNTY,TX,75602,AMERICAN AIR LIQUIDE HOLDINGS INC (100%),440289,P
2017,AIR LIQUIDE AMERICA CORP.,1006115,36597 HWY 30,30.21023,-90.99085,GEISMAR,ASCENSION PARISH,LA,70734,AMERICAN AIR LIQUIDE HOLDINGS INC (100%),324881,C
2017,AIR LIQUIDE GEISMAR UTILITY SERVICES,1003591,36183 HWY 30,30.21023,-90.99085,GEISMAR,ASCENSION PARISH,LA,70734,AMERICAN AIR LIQUIDE HOLDINGS INC (100%),243,C
2017,AIR LIQUIDE LARGE INDUSTRIES US LP - RODEO HYDROGEN PLANT,1003748,1391 SAN PABLO AVE,38.047952,-122.256895,RODEO,CONTRA COSTA COUNTY,CA,94572,AMERICAN AIR LIQUIDE HOLDINGS INC (100%),836850,P
2017,AIR PRODUCTS & CHEMICAL INC - LAKE CHARLES FACILITY,1003013,102 TROUSDALE RD,30.238889,-93.281944,WESTLAKE,CALCASIEU,LA,70669,AIR PRODUCTS & CHEMICALS INC (100%),754847,P
2017,AIR PRODUCTS & CHEMICALS INC - CONVENT SMR,1002754,10759 CONVENT WAY,30.10817,-90.88404,CONVENT,ST. JAMES PARISH,LA,70723,AIR PRODUCTS & CHEMICALS INC (100%),701383,P
2017,AIR PRODUCTS & CHEMICALS INC - Geismar SMR,1002698,8013 HWY 3251,30.210197,-90.988989,GEISMAR,ASCENSION PARISH,LA,70734,AIR PRODUCTS & CHEMICALS INC (100%),53144,"P,PP"
2017,AIR PRODUCTS & CHEMICALS INC - INDUSTRIAL GAS PRODUCTION FACILITY,1003009,14700 INTRACOASTAL DRIVE,30.028333,-89.901111,NEW ORLEANS,ORLEANS,LA,70129,AIR PRODUCTS & CHEMICALS INC (100%),288391,"C,P"
2017,AIR PRODUCTS & CHEMICALS INC MARTINEZ WATERFRONT ROAD,1002121,110 WATERFRONT RD,38.032767,-122.07594,MARTINEZ,CONTRA COSTA COUNTY,CA,94553,AIR PRODUCTS & CHEMICALS INC (100%),776438,P
2017,"AIR PRODUCTS & CHEMICALS, INC, Tesoro Martinez",1002122,,38.026667,-122.067222,MARTINEZ,CONTRA COSTA COUNTY,CA,94553,AIR PRODUCTS & CHEMICALS INC (100%),232264,P
2017,AIR PRODUCTS AND CHEMICALS INC - CATLETTSBURG HYDROGEN PLANT,1005809,11631 US Route 23 ,38.384444,-82.598528,CATLETTSBURG,BOYD,KY,41129,AIR PRODUCTS & CHEMICALS INC (100%),176811,P
2017,AIR PRODUCTS AND CHEMICALS INC - GARYVILLE,1002727,4663 W AIRLINE HWY ,30.09959,-90.648851,GARYVILLE,ST JOHN THE BAPTIST,LA,70051,AIR PRODUCTS & CHEMICALS INC (100%),890024,P
2017,AIR PRODUCTS AND CHEMICALS INCORPORATED,1002123,5025 83RD STREET,38.529722,-121.398889,SACRAMENTO,SACRAMENTO,CA,95826,AIR PRODUCTS & CHEMICALS INC (100%),46574,P
2017,AIR PRODUCTS BAYTOWN PLANT,1002430,5503 WEST BAKER ROAD,29.757778,-95.023056,BAYTOWN,HARRIS COUNTY,TX,77520,AIR PRODUCTS & CHEMICALS INC (100%),360769,"C,P"
2017,AIR PRODUCTS CARSON HYDROGEN PLANT,1002257,23300 SOUTH ALAMEDA STREET,33.812778,-118.231389,CARSON,LOS ANGELES,CA,90810,AIR PRODUCTS & CHEMICALS INC (100%),612023,P
2017,AIR PRODUCTS WILMINGTON HYDROGEN PLANT,1002435,700 HENRY FORD AVENUE,33.780833,-118.241111,WILMINGTON,LOS ANGELES,CA,90744,AIR PRODUCTS & CHEMICALS INC (100%),746996,P
2017,"AJINOMOTO HEARTLAND, INC.",1001919,1116 Highway 137,41.143573,-92.647934,EDDYVILLE,MONROE COUNTY,IA,52553,AJINOMOTO HEARTLAND INC (100%),140605,C
2017,AK STEEL,1003418,1724 LINDEN AVENUE,39.96136,-82.00034,ZANESVILLE,MUSKINGUM COUNTY,OH,43701,AK STEEL CORP (100%),17700,C
2017,AK STEEL CORP *,1003417,17400 STATE ROUTE 16,40.20669,-81.88549,COSHOCTON,COSHOCTON COUNTY,OH,43812,AK STEEL CORP (100%),41529,C
2017,AK STEEL CORP MANSFIELD WORKS,1006530,913 BOWMAN STREET,40.78513,-82.52384,MANSFIELD,RICHLAND COUNTY,OH,44903,AK STEEL CORP (100%),139932,"C,Q"
2017,AK STEEL CORP/BUTLER WORKS,1002903,1 ARMCO DR,40.82926,-79.94273,BUTLER,BUTLER COUNTY,PA,16003,AK STEEL CORP (100%),270719,"C,Q,TT"
2017,AK STEEL CORPORATION,1000214,6500 N US HIGHWAY 231,37.9849,-87.0259,ROCKPORT,SPENCER COUNTY,IN,47635,AK STEEL CORP (100%),136674,C
2017,AK STEEL DEARBORN WORKS,1003403,4001 MILLER RD,42.301742,-83.162934,DEARBORN,WAYNE COUNTY,MI,48120,AK STEEL CORP (100%),1240300,"C,Q"
2017,AK Steel Corporation - Middletown,1000274,1801 CRAWFORD STREET,39.4968,-84.3901,MIDDLETOWN,Butler,OH,45043,AK STEEL CORP (100%),4415218,"C,Q"
2017,AK Steel Corporation West Works,1005615,170 Armco Road,38.496367,-82.670282,Ashland,BOYD COUNTY,KY,41101,AK STEEL CORP (100%),95030,C
2017,AKER PLANT,1003129,261 FCR 181,31.90806,-96.227219,STREETMAN,FREESTONE,TX,75859,ENBRIDGE ENERGY MANAGEMENT (100%),37339,"C,PP,W"
2017,AKZO NOBEL SURFACE CHEMISTRY LLC,1007343,8005 NORTH TABLER RD.,41.40649,-88.33607,MORRIS,GRUNDY,IL,60450,AKZO NOBEL CHEMICALS INC (100%),118137,C
2017,AL CORN CLEAN FUEL,1005149,797 5th Street,44.049412,-93.017379,CLAREMONT,DODGE COUNTY,MN,55924,AL-CORN CLEAN FUEL (100%),76966,"C,PP"
2017,"ALABAMA RIVER CELLULOSE, LLC",1007917,2373 LENA LANDEGGER HWY,31.580112,-87.490073,PERDUE HILL,MONROE COUNTY,AL,36470,KOCH INDUSTRIES INC (100%),166545,"AA,C,TT"
2017,ALADDIN MILLS - ANTIOCH RD PLA NT,1007272,2001 ANTIOCH ROAD,34.73559,-84.94996,DALTON,WHITFIELD COUNTY,GA,30720,MOHAWK INDUSTRIES INC (100%),48024,C
2017,ALBEMARLE CORPORATION HOUSTON PLANT,1003402,2500 N. SOUTH ST.,29.743111,-95.166694,PASADENA,HARRIS COUNTY,TX,77503,ALBEMARLE CORP (100%),45105,C
2017,ALBEMARLE CORPORATION-SOUTH PLANT,1004307,2270 HWY 79 SOUTH OF MAGNOLIA,33.1756,-93.2169,MAGNOLIA,COLUMBIA COUNTY,AR,71753,ALBEMARLE CORP (100%),80084,C
2017,ALCOA INC - WARRICK OPERATIONS,1001877,,37.915,-87.3328,NEWBURGH,WARRICK COUNTY,IN,47629,ALCOA INC (100%),3425243,"C,D,F"
2017,ALCOA INTALCO WORKS,1003562,4050 MOUNTAIN VIEW RD.,48.8455,-122.7055,FERNDALE,WHATCOM COUNTY,WA,98248,ALCOA INC (100%),354712,"C,F,TT"
2017,ALCOA WENATCHEE LLC,1000635,6200 MALAGA HIGHWAY,47.3567,-120.1273,MALAGA,CHELAN COUNTY,WA,98828,ALCOA INC (100%),0,"C,F"
2017,ALCOA WORLD ALUMINA ATLANTIC,1003201,,28.65083,-96.56222,POINT COMFORT,CALHOUN COUNTY,TX,77978,ALCOA INC (60%); ALUMINA LTD (40%),661,"C,TT"
2017,ALCON LABORATORIES,1003448,6201 SOUTH FREEWAY,32.65784,-97.32095,FORT WORTH,TARRANT COUNTY,TX,76134,ALCON LABORATORIES INC (100%),33915,C
2017,ALERIS ROLLED PRODUCTS INC,1006045,1372 STATE ROAD 1957,37.936664,-86.858852,LEWISPORT,HANCOCK,KY,42351,ALERIS CORP (100%),154456,C
2017,ALLEGANY BALLISTICS LABORATORY,1005862,210 STATE ROUTE 956,39.560972,-78.843611,KEYSER,MINERAL COUNTY,WV,26726,ORBITAL ATK INC (100%),23626,C
2017,ALLEN COUNTY PUBLIC WORKS,1007192,1170 2800TH ST,38.007907,-95.289343,LA HARPE,ALLEN,KS,66751,ALLEN COUNTY KANSAS (100%),154,"C,HH"
2017,ALLIANCE COMPRESSOR STATION,1005887,12495 HWY 114,33.03425,-97.34692,JUSTIN,DENTON,TX,76247,CRESTWOOD MIDSTREAM PARTNERS LP (100%),57965,"C,W"
2017,ALLIANCE PETROLEUM CORPORATION,1012999,"4150 BELDEN VILLAGE AVE NW, SUITE 410",40.8540649,-81.460856,CANTON,,OH,44718,Alliance Petroleum CORP (100%),47,W
2017,ALLIANCE PIPELINE - OLIVIA 23-A,1005705,38884 870TH AVE,44.8491,-94.8969,BIRD ISLAND,RENVILLE COUNTY,MN,55310,ENBRIDGE ENERGY MANAGEMENT (50%); Pembina Pipeline CORP (50%),95362,"C,W"
2017,ALLIANCE PIPELINE L.P. - MANCHESTER,1001559,1242 220TH STREET,42.4671,-91.5509,MANCHESTER,DELAWARE COUNTY,IA,52057,ENBRIDGE ENERGY MANAGEMENT (50%); Pembina Pipeline CORP (50%),85727,"C,W"
2017,ALLIANCE PIPELINE LP,1001560,580 TAMPICO RD,41.59254,-89.78425,TAMPICO,WHITESIDE,IL,61283,ENBRIDGE ENERGY MANAGEMENT (50%); Pembina Pipeline CORP (50%),57863,"C,W"
2017,"ALLIANCE PIPELINE, L.P.-FAIRMOUNT COMPRESSOR STATION",1000245,17950 98TH ST SE,45.993367,-96.648999,FAIRMOUNT,RICHLAND,ND,58030,ENBRIDGE ENERGY MANAGEMENT (50%); Pembina Pipeline CORP (50%),92095,"C,W"
2017,"ALLIANCE PIPELINE, L.P.-WIMBLEDON COMPRESSOR STATION",1001558,1540 98TH AVE SE,47.191058,-98.42561,WIMBLEDON,BARNES,ND,58492,ENBRIDGE ENERGY MANAGEMENT (50%); Pembina Pipeline CORP (50%),91788,"C,W"
2017,ALLIANCE SANI LDFL,1007645,398 KEYSER AVENUE,41.3965,-75.7375,TAYLOR,LACKAWANNA COUNTY,PA,18517,WASTE MANAGEMENT INC (100%),1374,"C,HH"
2017,ALLIANT techsystems Operations LLC-LAKE CITY ARMY AMMUNITION PLANT,1001970,25201 East 78 Highway,39.103,-94.2783,INDEPENDENCE,JACKSON COUNTY,MO,64051,,34441,C
2017,ALLISON GAS PLANT,1007496,16298 Co. Rd. EE,35.618663,-100.14948,Allison,WHEELER,TX,79003,ENBRIDGE ENERGY MANAGEMENT (100%),36180,"C,W"
2017,"ALLISON TRANSMISSION, Inc.",1000048,One Allison Way,39.78039,-86.238893,INDIANAPOLIS,MARION COUNTY,IN,46222,ALLISON TRANSMISSION INC (100%),22172,C
2017,ALLP Greenriver Basin,1012251,1801 California Street Suite 1200,39.74708,-104.98968,Denver,DENVER COUNTY,CO,80202,Andeavor (FMA Tesoro Corp) (100%),154998,W
2017,ALLP Uinta Basin,1012248,1801 California St. Suite 1200,39.74708,-104.98968,Denver,DENVER COUNTY,CO,80202,Andeavor (FMA Tesoro Corp) (100%),120260,W
2017,ALMATIS INC - BAUXITE ARKANSAS,1004327,4701 ALCOA ROAD,34.57522,-92.53173,BAUXITE,SALINE COUNTY,AR,72011,ALMATIS INC (100%),60843,C
2017,ALON REFINING KROTZ SPRINGS INC,1007622,356 S. LEVEE RD,30.526504,-91.748383,KROTZ SPRINGS,ST. LANDRY PARISH,LA,70750,ALON USA LP (100%),546140,"C,MM,Y"
2017,ALPHA RIDGE LANDFILL,1007291,2350 MARRIOTTSVILLE ROAD,39.30718,-76.89862,MARRIOTTSVILLE,HOWARD COUNTY,MD,21104,HOWARD COUNTY MARYLAND (100%),26,"C,HH"
2017,ALTAMONT GAS PLANT,1004709,17790 WEST 3750 NORTH,40.35932,-110.28605,ALTAMONT,DUCHESNE,UT,84001,KINDER MORGAN INC (100%),46681,"C,NN,W"
2017,"ALTIVIA Petrochemicals, LLC - HAVERHILL COMPLEX",1007401,1019 HAVERHILL OHIO FURNACE ROAD,38.59167,-82.81944,HAVERHILL,SCIOTO COUNTY,OH,45636,ALTIVIA PETROCHEMICALS LLC (100%),24301,C
2017,ALTON STEEL COMPANY,1003268,#5 CUT ST.,38.88321,-90.14503,ALTON,MADISON COUNTY,IL,62002,ALTON STEEL INC (100%),33914,"C,Q"
2017,ALYESKA PIPELINE SE/TAPS PUMP STATION 01,1005184,,70.257222,-148.617778,PRUDHOE BAY,NORTH SLOPE,AK,99734,ALYESKA PIPELINE SERVICE CO (100%),62171,C
2017,"ALYESKA PIPELINE SERVICE COMPANY, Valdez Marine Terminal",1005781,300 DAYVILLE ROAD,61.0861,-146.3889,VALDEZ,VALDEZ-CORDOVA CENSUS AREA,AK,99686,ALYESKA PIPELINE SERVICE CO (100%),27465,C
2017,"AM/NS Calvert, LLC",1005491,1 AM/NS Way,31.148267,-87.979489,CALVERT,MOBILE COUNTY,AL,36513,AM/NS CALVERT (100%),519457,C
2017,AMALGAMATED SUGAR CO LLC,1005712,2320 ORCHARD DR. E.,42.531995,-114.431448,TWIN FALLS,TWIN FALLS COUNTY,ID,83301,SNAKE RIVER SUGAR CO (100%),284406,"C,S"
2017,AMALGAMATED SUGAR CO LLC,1005707,138 WEST KARCHER ROAD,43.612136,-116.579232,NAMPA,CANYON COUNTY,ID,83687,SNAKE RIVER SUGAR CO (100%),229589,"C,S,TT"
2017,AMALGAMATED SUGAR CO LLC,1006412,50 SOUTH 500 WEST,42.611671,-113.757423,PAUL,MINIDOKA,ID,83347,SNAKE RIVER SUGAR CO (100%),260802,"C,S,TT"
2017,AMEA Sylacauga Plant,1007178,125 THOMPSON LANE,33.1661,-86.2825,SYLACAUGA,Talladega,AL,35150,ALABAMA MUNICIPAL ELECTRIC AUTHORITY (100%),14823,D
2017,AMERICAN ACRYL PASADENA,1004732,"4631 Old Hwy 146, Suite B",29.62132,-95.06676,PASADENA,HARRIS,TX,77507,ARKEMA AMERICAS (50%); NIPPON SHOKUBAI AMERICA INDUSTRIES INC (50%),77271,C
2017,AMERICAN AIRLINES,1005432,3800 NORTH MINGO ROAD,36.204822,-95.868808,TULSA,TULSA,OK,74116,AMERICAN AIRLINES GROUP (100%),37363,C
2017,AMERICAN CAST IRON PIPE CO,1005327,2930 NORTH 16TH STREET,33.54698,-86.83465,BIRMINGHAM,JEFFERSON COUNTY,AL,35207,AMERICAN CAST IRON PIPE CO (100%),153918,C
2017,"AMERICAN CEMENT COMPANY, LLC",1003883,4750 EAST COUNTY ROAD 470,28.760864,-82.025353,SUMTERVILLE,SUMTER COUNTY,FL,33585,OLDCASTLE MATERIALS INC (50%); NATURAL RESOURCES OF CENTRAL FLORIDA INC (40%); CJM OF FLORIDA LLC (10%),464414,H
2017,AMERICAN COLLOID,1008041,692 US HIGHWAY 212,44.6835,-103.85716,BELLE FOURCHE,BUTTE,SD,57717,MINERALS TECHNOLOGIES INC (100%),76701,C
2017,AMERICAN CRYSTAL SUGAR - CROOKSTON,1006354,1201 Hwy 75 South,47.764444,-96.6325,CROOKSTON,POLK COUNTY,MN,56716,AMERICAN CRYSTAL SUGAR CO (100%),274906,"C,S,TT"
2017,AMERICAN CRYSTAL SUGAR - E GRAND FORKS,1005751,1020 Business Hwy 2,47.925833,-97.006111,EAST GRAND FORKS,POLK,MN,56721,AMERICAN CRYSTAL SUGAR CO (100%),269412,"C,S,TT"
2017,AMERICAN CRYSTAL SUGAR - HILLSBORO,1005753,121 Highway 81 NE,47.435833,-97.0625,HILLSBORO,TRAILL,ND,58045,AMERICAN CRYSTAL SUGAR CO (100%),361283,"C,S,TT"
2017,AMERICAN CRYSTAL SUGAR - MOORHEAD,1006877,2500 NORTH 11TH STREET,46.903056,-96.759722,MOORHEAD,CLAY COUNTY,MN,56560,AMERICAN CRYSTAL SUGAR CO (100%),247050,"C,S,TT"
2017,AMERICAN ENVIRONMENTAL LANDFILL,1002552,212 N. 177TH W. AVENUE,36.163345,-96.188988,SAND SPRINGS,OSAGE COUNTY,OK,74063,AMERICAN ENVIRONMENTAL LANDFILL INC (100%),53,"C,HH"
2017,AMERICAN GYPSUM - BERNALILLO (WALLBOARD) PLANT,1000007,1000 N HILL RD,35.329352,-106.525777,BERNALILLO,SANDOVAL,NM,87004,EAGLE MATERIALS INC (100%),4141,C
2017,AMERICAN GYPSUM CO /GYPSUM WALLBOARD PLT,1005175,0.25 MILES W OF,34.654167,-99.594722,DUKE,JACKSON COUNTY,OK,73532,EAGLE MATERIALS INC (100%),93034,C
2017,AMERICAN GYPSUM COMPANY,1007404,740 Highway #6,39.658889,-106.956111,GYPSUM,EAGLE,CO,81637,EAGLE MATERIALS INC (100%),62627,C
2017,AMERICAN GYPSUM COMPANY,1004845,4600 Paseo Del Norte NE,35.17237,-106.59347,ALBUQUERQUE,BERNALILLO COUNTY,NM,87113,EAGLE MATERIALS INC (100%),41063,C
2017,AMERICAN PROTEINS INCORPORATED HANCEVILLE DIVISION,1007030,1170 COUNTY RD. 508,33.956949,-86.809218,HANCEVILLE,CULLMAN,AL,35077,AMERICAN PROTEINS INC (100%),92128,C
2017,AMERICAN REFINING GROUP INC,1005590,77 NORTH KENDALL AVENUE,41.965472,-78.633108,BRADFORD,MCKEAN COUNTY,PA,16701,AMERICAN REFINING GROUP INC (100%),114777,"C,MM,Y"
2017,AMERICAN SUGAR REFINING INC - Chalmette Refinery,1001860,7417 N PETERS ST,29.953741,-89.997638,ARABI,ST. BERNARD PARISH,LA,70032,AMERICAN SUGAR REFINING INC (100%),120041,C
2017,AMERICAS STYRENICS LLC - ST JAMES PLANT,1001962,9901 HWY 18,30.08013,-90.916,ST. JAMES,ST. JAMES PARISH,LA,70086,CHEVRON CORP (50%); TRINSEO (50%),621772,C
2017,"AMGEN MANUFACTURING, LIMITED",1005072,RD 31 KM 24.6,18.235793,-65.904429,JUNCOS,JUNCOS,PR,777,AMGEN INC (100%),28052,C
2017,AMID 220 Gulf Coast Gathering And Boosting,1012787,,29.46277,-97.195958,Shiner,LAVACA COUNTY,TX,77984,AMERICAN MIDSTREAM PARTNERS LP (100%),118817,W
2017,AMP Fremont Energy Center,1008730,1275 Miarer Rd,41.3771,-83.1615,Fremont,SANDUSKY COUNTY,OH,43420,AMERICAN MUNICIPAL POWER (100%),1174184,D
2017,ANCHOR ACQUISITION LLC MONACA PLT,1006810,400 9TH STREET,40.69152,-80.2808,MONACA,BEAVER,PA,15061,ONEIDA GROUP (100%),40955,"C,N"
2017,ANCHOR HOCKING GLASS CO PLANT NO 1 *,1004508,1115 WEST FIFTH AVENUE,39.71923,-82.61895,LANCASTER,FAIRFIELD COUNTY,OH,43130,ONEIDA GROUP (100%),64893,"C,N"
2017,ANCHORAGE REGIONAL LANDFILL,1007341,15500 E. EAGLE RIVER LOOP RD,61.290401,-149.604757,EAGLE RIVER,ANCHORAGE MUNICIPALITY,AK,99577,MUNICIPALITY OF ANCHORAGE - SOLID WASTE SERVICES (100%),2,"C,HH"
2017,ANDERSONS ALBION ETHANOL LLC,1007933,26250 B DR N,42.259646,-84.789726,ALBION,CALHOUN,MI,49224,THE ANDERSONS INC (53.08%); MARATHON PETROLEUM CO LP (42.94%); HOME GROWN FUELS (3.98%),189475,"C,II,PP"
2017,ANDERSONS CLYMERS ETHANOL LLC,1005969,3389 WEST CR 300 SOUTH,40.719022,-86.435982,LOGANSPORT,CASS COUNTY,IN,46947,MARATHON PETROLEUM CO LP (60.01%); THE ANDERSONS INC (38.18%); CHICAGO RIVER MARKETING LLC (1.81%),189530,C
2017,ANDERSONS DENISON ETHANOL LLC,1007565,2404 W HWY 30,41.98905,-95.39912,DENISON,CRAWFORD COUNTY,IA,51442,THE ANDERSONS INC (84.9%); CENTRAL STATES (15.1%),82787,"C,II"
2017,ANDERSONS MARATHON ETHANOL LLC,1000035,5728 E SEBRING WARNER RD,40.081111,-84.591667,GREENVILLE,DARKE,OH,45331,THE ANDERSONS INC (50%); MARATHON PETROLEUM CO LP (25%); MARATHON PETROLEUM CO LP (25%),186417,"C,II,PP"
2017,ANGUS CHEMICAL CO,1002263,350 LOUISIANA HIGHWAY 2,32.6907,-92.0826,STERLINGTON,OUACHITA PARISH,LA,71280,ARUBA INVESTMENTS INC (100%),92627,"C,V"
2017,ANHEUSER BUSCH BALDWINSVILLE BREWERY,1002576,2885 BELGIUM ROAD,43.1691,-76.3112,BALDWINSVILLE,ONONDAGA COUNTY,NY,13027,ANHEUSER-BUSCH COS LLC (100%),30264,"C,PP"
2017,ANHEUSER BUSCH INC,1006111,700 SCHROCK ROAD,40.103056,-82.993056,COLUMBUS,FRANKLIN COUNTY,OH,43229,ANHEUSER-BUSCH COS LLC (100%),36571,C
2017,ANHEUSER BUSCH INC. - L.A. BREWERY,1002867,15800 ROSCOE BOULEVARD,34.22132,-118.48044,VAN NUYS,LOS ANGELES COUNTY,CA,91406,ANHEUSER-BUSCH COS LLC (100%),36812,C
2017,ANHEUSER BUSCH INCORPORATED FORT COLLINS BREWERY,1003352,2351 BUSCH DRIVE,40.619722,-105.006111,FORT COLLINS,LARIMER,CO,80524,ANHEUSER-BUSCH COS LLC (100%),48128,C
2017,ANHEUSER BUSCH LLC,1003176,7801 POCAHONTAS TRAIL,37.237518,-76.652662,WILLIAMSBURG,JAMES CITY COUNTY,VA,23185,ANHEUSER-BUSCH COS LLC (100%),37965,C
2017,ANHEUSER-BUSCH HOUSTON BREWERY,1003224,775 GELLHORN DRIVE,29.774444,-95.270833,HOUSTON,HARRIS,TX,77029,ANHEUSER-BUSCH COS LLC (100%),25263,C
2017,ANHEUSER-BUSCH LLC,1006147,111 BUSCH DR.,30.433075,-81.647505,JACKSONVILLE,DUVAL COUNTY,FL,32218,ANHEUSER-BUSCH COS LLC (100%),59932,C
2017,ANHEUSER-BUSCH LLC,1002915,221 DANIEL WEBSTER HIGHWAY,42.82407,-71.485564,MERRIMACK,HILLSBOROUGH,NH,3054,ANHEUSER-BUSCH COS LLC (100%),16237,C
2017,"ANHEUSER-BUSCH, INC. CARTERSVI LLE BREWERY",1006904,100 BUSCH DR.,34.25768,-84.78162,CARTERSVILLE,BARTOW COUNTY,GA,30120,ANHEUSER-BUSCH COS LLC (100%),21764,C
2017,"ANHEUSER-BUSCH, INC. NEWARK BREWERY",1003525,200 US HIGHWAY ONE,40.693625,-74.195918,NEWARK,ESSEX COUNTY,NJ,7114,ANHEUSER-BUSCH COS LLC (100%),20470,C
2017,ANIMAS POWER PLANT,1005490,501 MCCORMICK SCHOOL ROAD,36.72488,-108.19144,FARMINGTON,SAN JUAN COUNTY,NM,87401,CITY OF FARMINGTON (100%),9905,C
2017,"ANP Bellingham Energy Company, LLC",1006864,155 MAPLE ST,42.1113,-71.4529,BELLINGHAM,Norfolk,MA,2019,DYNEGY INC (100%),749949,"C,D"
2017,"ANP Blackstone Energy Company, LLC",1006657,204 ELM ST,42.0575,-71.5172,BLACKSTONE,Worcester,MA,1504,DYNEGY INC (100%),785363,"C,D"
2017,ANR Pipeline Alden CS,1004929,2135 11th Road,38.214341,-98.289215,ALDEN,RICE,KS,67512,ANR PIPELINE CO (100%),26533,"C,W"
2017,ANR Pipeline Birmingham CS,1004926,2795 LOCUST AVE,40.901819,-91.967609,BIRMINGHAM,VAN BUREN,IA,52535,ANR PIPELINE CO (100%),33546,"C,W"
2017,ANR Pipeline Blue Lake Complex Gas Storage Facility,1005958,10000 PFLUM RD NE,44.84469,-84.96916,MANCELONA,KALKASKA,MI,49659,ANR PIPELINE CO (100%),28314,"C,W"
2017,ANR Pipeline Bridgman CS,1004928,3372 BROWNTOWN RD,41.897126,-86.534271,BRIDGMAN,BERRIEN COUNTY,MI,49106,ANR PIPELINE CO (100%),39135,"C,W"
2017,ANR Pipeline Brownsville CS,1005235,70 Pumping Station Road,35.44545,-89.28553,Brownsville,HAYWOOD,TN,38012,ANR PIPELINE CO (100%),2381,"C,W"
2017,ANR Pipeline Celestine CS,1005245,146 S. Celestine South,38.377528,-86.777306,Celestine,DUBOIS COUNTY,IN,47521,ANR PIPELINE CO (100%),5486,"C,W"
2017,ANR Pipeline Cottage Grove CS,1009589,7845 Highway 140 N,36.390381,-88.481323,Cottage Grove,HENRY,TN,38224,ANR PIPELINE CO (100%),5572,"C,W"
2017,ANR Pipeline Defiance CS,1007403,6357 State Route 66 N,41.349885,-84.359487,Defiance,DEFIANCE COUNTY,OH,43512,ANR PIPELINE CO (100%),42041,"C,W"
2017,ANR Pipeline Delhi CS,1011138,1894 Highway 80,32.465897,-91.604473,Delhi,RICHLAND PARISH,LA,71232,ANR PIPELINE CO (100%),15465,"C,W"
2017,ANR Pipeline E.G. Hill CS,1004932,15175 County Road,36.494444,-101.469444,GRUVER,HANSFORD,TX,79040,ANR PIPELINE CO (100%),37989,"C,W"
2017,ANR Pipeline Enterprise CS,1004930,1615 NAIL ROAD,38.819723,-97.093625,ENTERPRISE,DICKINSON,KS,67441,ANR PIPELINE CO (100%),30945,"C,W"
2017,ANR Pipeline Eunice CS,1013036,4202 Fournerat Road,30.46589,-92.525857,Eunice,ACADIA PARISH,LA,70535,ANR PIPELINE CO (100%),23256,"C,W"
2017,ANR Pipeline Goodman CS,1011576,W 15681 US Highway 8,45.653597,-88.386651,Goodman,MARINETTE COUNTY,WI,54125,ANR PIPELINE CO (100%),392,"C,W"
2017,ANR Pipeline Greensburg CS,1004776,,37.61422,-99.396874,GREENSBURG,KIOWA,KS,67054,ANR PIPELINE CO (100%),29726,"C,W"
2017,ANR Pipeline Hamilton CS,1004923,4193 134TH AVENUE,42.66621,-85.95642,HAMILTON,ALLEGAN,MI,49419,ANR PIPELINE CO (100%),40307,"C,W"
2017,ANR Pipeline Havensville CS,1004935,19955 ENGLISH RIDGE RD,39.49188,-96.04486,HAVENSVILLE,POTTAWATOMIE COUNTY,KS,66432,ANR PIPELINE CO (100%),26735,"C,W"
2017,ANR Pipeline Lineville CS,1005953,2868 15TH STREET,40.630044,-93.540108,LINEVILLE,WAYNE COUNTY,IA,50147,ANR PIPELINE CO (100%),24917,"C,W"
2017,ANR Pipeline Madisonville CS,1005242,7500 Nebo Road,37.3823,-87.6177,Madisonville,HOPKINS COUNTY,KY,77002,ANR PIPELINE CO (100%),8669,"C,W"
2017,ANR Pipeline Maitland CS,1005060,33854 COUNTY HIGHWAY TT,40.175383,-95.122361,MAITLAND,HOLT,MO,64466,ANR PIPELINE CO (100%),42400,"C,W"
2017,ANR Pipeline Meade CS,1009733,28111 11 Road,37.078655,-100.47068,Meade,MEADE,KS,67864,ANR PIPELINE CO (100%),20911,"C,W"
2017,ANR Pipeline Mooreland CS,1009608,14070 US Highway 412,36.473972,-99.145615,Mooreland,WOODWARD COUNTY,OK,73852,ANR PIPELINE CO (100%),21737,"C,W"
2017,ANR Pipeline New Windsor CS,1004769,296 NORTH 600 AVE,41.21009,-90.43646,NEW WINDSOR,MERCER,IL,61465,ANR PIPELINE CO (100%),26667,"C,W"
2017,ANR Pipeline Patterson CS,1005243,3609 Highway 90,29.691875,-91.342885,PATTERSON,SAINT MARY,LA,70392,ANR PIPELINE CO (100%),39294,"C,W"
2017,ANR Pipeline Portland CS,1009590,6059 W State Road 26,40.44464,-85.09691,Portland,JAY COUNTY,IN,47371,ANR PIPELINE CO (100%),32669,"C,W"
2017,ANR Pipeline Sandwich CS,1004937,6650 SANDY BLUFF RD,41.6227,-88.58362,SANDWICH,KENDALL COUNTY,IL,60548,ANR PIPELINE CO (100%),14595,"C,W"
2017,ANR Pipeline Sardis CS,1005244,2099 Holly Grove Road,34.423067,-90.125564,Sardis,PANOLA COUNTY,MS,38666,ANR PIPELINE CO (100%),6146,"C,W"
2017,ANR Pipeline Shelbyville CS,1005236,5500 Smithland Road,39.439972,-85.876694,Shelbyville,SHELBY,IN,46176,ANR PIPELINE CO (100%),4243,"C,W"
2017,ANR Pipeline St. John CS,1004925,10313 WHITE OAK AVE,41.431667,-87.488972,ST JOHN,LAKE,IN,46373,ANR PIPELINE CO (100%),22608,"C,W"
2017,ANR Pipeline Woodstock CS,1011137,15313 West South Street Road,42.288284,-88.494903,Woodstock,MCHENRY COUNTY,IL,60098,ANR PIPELINE CO (100%),17555,"C,W"
2017,ANR Pipeline Woolfolk CS,1004933,11039 150TH AVENUE,43.6249,-85.3844,BIG RAPIDS,MECOSTA,MI,49307,ANR PIPELINE CO (100%),26194,"C,W"
2017,ANSHUTZ RANCH EAST GAS PLANT,1004802,20 MILES SOUTHWEST OF EVANSTON,41.067222,-111.040833,EVANSTON,UINTA,WY,82930,MERIT ENERGY CO LLC (100%),17258,"C,W"
2017,ANTELOPE VALLEY RECYCLING AND DISPOSAL FACILITY,1007710,1200 WEST CITY RANCH ROAD,34.56786,-118.13934,PALMDALE,LOS ANGELES,CA,93551,WASTE MANAGEMENT INC (100%),122,"C,HH"
2017,APACHE NITROGEN PRODUCTS - PLANT,1001908,1436 SOUTH APACHE POWDER ROAD,31.88,-110.24,St. David,COCHISE COUNTY,AZ,85630,FREEPORT MCMORAN COPPER & GOLD (50%); SOUTHWEST ENERGY (50%),1000,"C,V"
2017,"APEX ENVIRONMENTAL, LLC - SANITARY LANDFILL (0641000223)",1006777,11 COUNTY ROAD 78,40.432403,-80.911512,AMSTERDAM,JEFFERSON COUNTY,OH,43903,APEX ENVIRONMENTAL LLC (100%),33,"C,HH"
2017,APEX REGIONAL LANDFILL,1004352,13550 US HIGHWAY 93 NORTH,36.29423,-115.28183,LAS VEGAS,CLARK,NV,89165,REPUBLIC SERVICES INC (100%),1045,"C,HH"
2017,APPLEBY TREATER,1010353,,31.6912,-94.5833,Appleby,NACOGDOCHES,TX,75965,ENERGY TRANSFER PARTNERS LP (100%),31307,"C,W"
2017,APPLETON ROARING SPRING PAPER MFG,1005669,100 PAPER MILL RD.,40.33873,-78.405175,ROARING SPRING,BLAIR COUNTY,PA,16673,APPVION INC (100%),93783,"AA,C"
2017,APPVION - APPLETON PLT,1002596,825 E WISCONSIN AVE,44.2729,-88.39364,APPLETON,OUTAGAMIE COUNTY,WI,54911,APPVION INC (100%),38038,C
2017,"APPVION, INC. WEST CARROLLTON",1002434,1030 WEST ALEX BELL ROAD,39.652127,-84.186718,WEST CARROLLTON,MONTGOMERY COUNTY,OH,45449,APPVION INC (100%),14155,C
2017,APS Saguaro Power Plant,1001423,MAIL POST 228,32.5517,-111.3,RED ROCK,Pinal,AZ,85245,PINNACLE WEST CAPITAL CORP (100%),39029,"C,D"
2017,APS West Phoenix Power Plant,1001422,4606 WEST HADLEY,33.4417,-112.1583,PHOENIX,Maricopa,AZ,85043,PINNACLE WEST CAPITAL CORP (100%),1277156,"C,D"
2017,AR GLASS CONTAINER CORP,1005906,516 WEST JOHNSON AVENUE,35.845862,-90.707271,JONESBORO,CRAIGHEAD COUNTY,AR,72401,ARKANSAS GLASS CONTAINER CORP (100%),31428,"C,N"
2017,ARCELORMITTAL BURNS HARBOR LLC,1003962,250 W US 12,41.627864,-87.143816,BURNS HARBOR,PORTER COUNTY,IN,46304,ARCELORMITTAL USA (100%),10131400,"C,Q"
2017,ARCELORMITTAL MONESSEN,1005025,345 DONNER AVENUE,40.161547,-79.883469,MONESSEN,WESTMORELAND COUNTY,PA,15062,ARCELORMITTAL USA (100%),166512,"C,Q"
2017,ARCELORMITTAL PLATE LLC,1003668,139 MODENA RD,39.98301,-75.82791,COATESVILLE,CHESTER COUNTY,PA,19320,ARCELORMITTAL USA (100%),175829,"C,Q"
2017,ARCELORMITTAL PLATE LLC/CONSHOHOCKEN PLT,1003523,900 CONSHOHOCKEN RD,40.090954,-75.31707,CONSHOHOCKEN,MONTGOMERY COUNTY,PA,19428,ARCELORMITTAL USA (100%),53665,C
2017,ARCELORMITTAL RIVERDALE LLC,1006325,13500 S PERRY AVE,41.656474,-87.625847,RIVERDALE,COOK COUNTY,IL,60827,ARCELORMITTAL USA (100%),157163,"C,Q"
2017,ARCELORMITTAL STEELTON LLC/STEELTON,1004215,215 S FRONT ST,40.23258,-76.83645,STEELTON,DAUPHIN COUNTY,PA,17113,ARCELORMITTAL USA (100%),103023,"C,Q"
2017,ARCELORMITTAL TUBULAR PRODUCTS SHELBY LLC,1005385,132-140 W MAIN ST,40.88135,-82.66758,SHELBY,RICHLAND COUNTY,OH,44875,ARCELORMITTAL USA (100%),63867,C
2017,ARCELORMITTAL WARREN  (0278000648),1003380,2234 MAIN AVE SW,41.211242,-80.81682,WARREN,TRUMBULL COUNTY,OH,44481,ARCELORMITTAL USA (100%),203418,"C,Q"
2017,ARCHER DANIEL MIDLAND COMPANY,1002916,3000 E 8TH STREET,41.42139,-97.288612,COLUMBUS,PLATTE,NE,68601,ARCHER DANIELS MIDLAND CO (100%),1331741,"C,II"
2017,ARCHER DANIELS MIDLAND,1001945,400 WEST ERIE ROAD,44.474067,-95.783679,MARSHALL,LYON COUNTY,MN,56258,ARCHER DANIELS MIDLAND CO (100%),184407,"C,II,PP"
2017,ARCHER DANIELS MIDLAND,1003215,2191 W CR 0 NS,40.2853,-86.5479,FRANKFORT,CLINTON COUNTY,IN,46041,ARCHER DANIELS MIDLAND CO (100%),56005,C
2017,ARCHER DANIELS MIDLAND COMPANY,1005935,7800 THAYER STREET,40.86667,-96.619116,LINCOLN,LANCASTER COUNTY,NE,68507,ARCHER DANIELS MIDLAND CO (100%),148157,C
2017,ARCHER DANIELS MIDLAND PROCESSING,1005940,1388 HIGHWAY 97,48.062189,-100.924361,VELVA,MCHENRY COUNTY,ND,58790,ARCHER DANIELS MIDLAND CO (100%),38790,C
2017,ARCONIC INC - TENNESSEE OPERATIONS,1002795,2300 N WRIGHT RD,35.811815,-83.969576,ALCOA,BLOUNT COUNTY,TN,37701,ARCONIC INC (100%),216749,C
2017,ARCONIC INC DAVENPORT WORKS,1007937,4879 STATE STREET,41.53115,-90.4682,BETTENDORF,SCOTT COUNTY,IA,52722,ALCOA INC (100%),258479,C
2017,ARCONIC INC MASSENA OPERATIONS,1002483,45 COUNTY ROUTE 42,44.950425,-74.893685,MASSENA,ST. LAWRENCE COUNTY,NY,13662,ARCONIC INC (100%),10410,"C,TT"
2017,ARCONIC INC. - LAFAYETTE OPERATIONS,1004649,3131 E MAIN ST,40.401861,-86.866139,LAFAYETTE,TIPPECANOE,IN,47905,ARCONIC INC (100%),57480,C
2017,ARDEN LDFL,1003456,200 Rangos Lane,40.208427,-80.264771,WASHINGTON,WASHINGTON,PA,15301,WASTE MANAGEMENT INC (100%),1776,"C,HH"
2017,ARGOS CEMENT LLC. - ROBERTA PLANT,1006659,8039 HIGHWAY 25,33.1043,-86.7985,CALERA,SHELBY COUNTY,AL,35040,ARGOS USA (100%),632557,"C,H"
2017,ARGOS USA -Martinsburg,1007566,1826 SOUTH QUEEN STREET,39.434879,-77.977911,MARTINSBURG,BERKELEY COUNTY,WV,25401,ARGOS USA (100%),834065,"C,H"
2017,ARIZONA CHEMICAL COMPANY,1002442,"2 EVERITT AVE., S. END",30.143939,-85.618924,PANAMA CITY,BAY COUNTY,FL,32401,ARIZONA CHEMICAL CO LLC (100%),68270,C
2017,ARIZONA STATE UNIVERSITY,1006199,"300 E. University Drive, Suite 320",33.42195,-111.935,TEMPE,MARICOPA,AZ,85281,ARIZONA BOARD OF REGENTS FOR & ON BEHALF OF ARIZONA STATE UNIVERSITY (100%),43653,C
2017,ARK STEEL ASSOCIATES,1005801,2803 VAN DYKE ROAD,35.648518,-91.244662,NEWPORT,JACKSON COUNTY,AR,72112,ARKANSAS STEEL ASSOCIATES LLC (100%),84252,"C,Q"
2017,ARKALON ETHANOL LLC,1006203,8664 RD P,37.107705,-100.796294,LIBERAL,SEWARD,KS,67901,CONESTOGA ENERGY PARTNERS LLC (100%),104124,"C,PP"
2017,ARKANSAS LIME COMPANY,1002209,600 LIMEDALE ROAD,35.794009,-91.718918,BATESVILLE,INDEPENDENCE COUNTY,AR,72501,US LIME & MINERALS INC (100%),422548,"C,S"
2017,ARKEMA BEAUMONT PLANT,1006644,2810 GULF STATES ROAD,30.060226,-94.058976,BEAUMONT,JEFFERSON,TX,77701,ARKEMA AMERICAS (100%),51652,C
2017,ARKEMA INC CLEAR LAKE,1006797,9502 BAYPORT BLVD STE B,29.624369,-95.062877,PASADENA,HARRIS COUNTY,TX,77507,ARKEMA AMERICAS (100%),56819,C
2017,"ARKEMA, INC.",1005721,4444 INDUSTRIAL PARKWAY,37.04902,-88.3692,CALVERT CITY,MARSHALL COUNTY,KY,42029,ARKEMA AMERICAS (100%),71404,"C,L,OO"
2017,ARKOMA Basin - BG,1012817,10000 Energy Drive,30.09534,-95.43839,Spring,HARRIS COUNTY,TX,77389,SOUTHWESTERN ENERGY CO (100%),1558234,W
2017,ARMSTRONG CEMENT & SUPPLY,1006785,100 CLEARFIELD ROAD,40.7948,-79.70017,CABOT,BUTLER COUNTY,PA,16023,SNYDER ASSOCIATED COMPANIES INC (100%),180964,"C,H"
2017,ARMSTRONG WORLD IND MARIETTA CEILING PLT,1003208,1507 RIVER ROAD,40.0586,-76.58845,MARIETTA,LANCASTER COUNTY,PA,17547,ARMSTRONG WORLD INDUSTRIES INC (100%),72818,C
2017,ARMSTRONG WORLD INDUSTRIES INC.,1002968,300 SOUTH MYRICK ST,30.408671,-87.250165,PENSACOLA,ESCAMBIA COUNTY,FL,32505,ARMSTRONG WORLD INDUSTRIES INC (100%),32958,C
2017,ARTESIA GAS PLANT,1002515,,32.7564,-104.2111,ARTESIA,EDDY COUNTY,NM,88210,DCP MIDSTREAM LP (100%),77495,"C,PP,UU,W"
2017,ASARCO LLC AMARILLO COPPER REFINERY,1002494,7001 NORTH HIGHWAY 136,35.284533,-101.730042,AMARILLO,POTTER COUNTY,TX,79108,AMERICAS MINING CORP (100%),55063,C
2017,ASARCO LLC Hayden Operations,1002486,100 Hayden Avenue,33.001796,-110.777946,Hayden,GILA COUNTY,AZ,85135,AMERICAS MINING CORP (100%),45268,C
2017,ASCEND PERFORMANCE MATERIALS CHOCOLATE BAYOU FACILITY,1002190,,29.2567,-95.2144,ALVIN,BRAZORIA COUNTY,TX,77512,ASCEND PERFORMANCE MATERIALS LLC (100%),572818,"C,X"
2017,ASCEND PERFORMANCE MATERIALS OPERATIONS LLC,1003975,1515 HWY 246 S,34.2306,-82.05776,GREENWOOD,GREENWOOD COUNTY,SC,29646,ASCEND PERFORMANCE MATERIALS LLC (100%),49132,C
2017,ASH GROVE CEMENT CO-CHANUTE PLANT,1002665,1801 NORTH SANTA FE STREET,37.698786,-95.459748,CHANUTE,NEOSHO COUNTY,KS,66720,ASH GROVE CEMENT CO (100%),1112124,"C,H"
2017,ASH GROVE CEMENT COMPANY,1002421,900 GIFCO ROAD,32.51993,-97.0068,MIDLOTHIAN,ELLIS,TX,76065,ASH GROVE CEMENT CO (100%),673959,"C,H"
2017,ASH GROVE CEMENT COMPANY-DURKEE,1002527,33060 SHIRTTAIL CREEK ROAD,44.5428,-117.4218,DURKEE,BAKER COUNTY,OR,97905,ASH GROVE CEMENT CO (100%),714875,"C,H"
2017,ASH GROVE CEMENT COMPANY-Louisville,1007552,16215 HWY. 50,41.005565,-96.154917,LOUISVILLE,CASS COUNTY,NE,68037,ASH GROVE CEMENT CO (100%),709203,"C,H"
2017,ASH GROVE CEMENT COMPANY-MONTANA CITY,1002531,100 HIGHWAY 518,46.54448,-111.92062,CLANCY,JEFFERSON COUNTY,MT,59634,ASH GROVE CEMENT CO (100%),280765,"C,H"
2017,ASH GROVE CEMENT COMPANY-SEATTLE,1002537,3801 EAST MARGINAL WAY SOUTH,47.56799,-122.34255,SEATTLE,KING COUNTY,WA,98134,ASH GROVE CEMENT CO (100%),355217,H
2017,ASH GROVE CEMENT-FOREMAN,1007606,4343 HWY 108,33.6953,-94.423,Foreman,LITTLE RIVER COUNTY,AR,71836,ASH GROVE CEMENT CO (100%),747644,"C,H"
2017,ASHLEY Energy LLC,1003496,1 ASHLEY STREET,38.63639,-90.18108,SAINT LOUIS,SAINT LOUIS CITY,MO,63102,Ashley Energy LLC (100%),54013,C
2017,ASTORIA ENERGY LLC & ASTORIA ENERGY II LLC,1004576,17-10 STEINWAY ST,40.7825,-73.8964,ASTORIA,QUEENS COUNTY,NY,11105,ASTORIA ENERGY LLC & ASTORIA ENERGY II LLC (100%),2309409,D
2017,ATI Allvac - Monroe,1006778,2020 ASHCRAFT AVENUE,34.984,-80.51337,MONROE,UNION COUNTY,NC,28110,ALLEGHENY TECHNOLOGIES INC (100%),61492,C
2017,ATI LADISH LLC,1005442,5481 S PACKARD AVE,42.947167,-87.8615,CUDAHY,MILWAUKEE COUNTY,WI,53110,ALLEGHENY TECHNOLOGIES INC (100%),52877,C
2017,ATK Launch Systems Inc,1002571,9160 North Highway 83,41.663,-112.432,Promontory,BOX ELDER COUNTY,UT,84307,ORBITAL ATK INC (100%),45569,C
2017,ATK Launch Systems Inc,1002570,5000 SOUTH 8400 WEST,40.668325,-112.091908,MAGNA,SALT LAKE COUNTY,UT,84044,ORBITAL ATK INC (100%),13416,C
2017,"ATLANTIC COFFEE INDUSTRIAL SOLUTIONS, LLC",1003772,3900 HARRISBURG BLVD.,29.7458,-95.3375,HOUSTON,HARRIS,TX,77003,ECOM ATLANTIC INC (100%),22958,C
2017,ATLANTIC COUNTY LANDFILL,1001858,6700 Delilah Road,39.41653,-74.54036,EGG HARBOR TOWNSHIP,ATLANTIC COUNTY,NJ,8234,ATLANTIC COUNTY UTILITIES AUTHORITY (100%),226,"C,HH"
2017,ATLANTIC WASTE DISPOSAL INC - SUSSEX COUNTY LAND,1003826,3474 ATLANTIC LN,37.061279,-77.177106,WAVERLY,SUSSEX,VA,23890,WASTE MANAGEMENT INC (100%),1178,"C,HH"
2017,AUBURN SANITARY LANDFILL NO 2,1003034,311 NORTH DIVISION STREET,42.951487,-76.586758,AUBURN,CAYUGA,NY,13021,CITY OF AUBURN (100%),421,"C,HH"
2017,AUDUBON METALS LLC,1005000,3055 OHIO DR.,37.80603,-87.63308,HENDERSON,HENDERSON COUNTY,KY,42420,KOCH ENTERPRISES INC (100%),47808,C
2017,AUGUSTA COUNTY SVC AUTHORITY LANDFILL,1006344,749 Christians Creek Road,38.0781,-79.0635,STAUNTON,AUGUSTA COUNTY,VA,24401,COUNTY OF AUGUSTA (51.97%); CITY OF STAUNTON (25.75%); CITY OF WAYNESBORO (22.28%),36,"C,HH"
2017,AUSTIN WHITE LIME COMPANY MCNEIL PLANT & QUARRY,1007346,14001 MCNEIL ROAD,30.45407,-97.72091,AUSTIN,TRAVIS COUNTY,TX,78728,AUSTIN WHITE LIME CO (100%),185008,"C,S"
2017,AUTUMN HILLS RECYCLING AND DISPOSAL FACILITY,1006132,700 56TH AVENUE,42.780647,-85.920569,ZEELAND,OTTAWA,MI,49464,WASTE MANAGEMENT INC (100%),279,"C,HH"
2017,AUX SABLE LIQUID PRODUCTS INC,1005770,6155 EAST U.S. ROUTE 6,41.413284,-88.304262,MORRIS,GRUNDY COUNTY,IL,60450,AUX SABLE (100%),310150,"C,NN,W"
2017,AVA LANDFILL,1003033,7044 ST RTE 294,43.461,-75.412,AVA,ONEIDA,NY,13303,ONEIDA-HERKIMER SOLID WASTE MANAGEMENT AUTHORITY (100%),78,"C,HH"
2017,AVINGER GAS PLANT,1003082,2339 Avinger Cut Off Road,32.854676,-94.59315,Avinger,CASS,TX,75630,ENBRIDGE ENERGY MANAGEMENT (100%),35596,"C,W"
2017,AZUSA LAND RECLAMATION CO INC INERT LF,1007682,1211 W GLADSTONE ST,34.11432,-117.92861,AZUSA,LOS ANGELES,CA,91702,WASTE MANAGEMENT INC (100%),1379,"C,HH"
2017,Abbott Laboratories,1000378,1250 West Maricopa Highway,32.894,-111.78312,Casa Grande,PINAL COUNTY,AZ,85193,ABBOTT LABORATORIES (100%),35007,C
2017,Abbott Nutrition - A Division of Abbott Laboratories,1003205,1518 MAIN STREET,37.130556,-79.267778,ALTAVISTA,CAMPBELL COUNTY,VA,24517,ABBOTT LABORATORIES (100%),27218,C
2017,Aberdeen Generating Station,1010630,421 30th Ave SW,45.45807,-98.50242,Aberdeen,BROWN,SD,57401,NORTHWESTERN ENERGY (100%),7634,"C,D"
2017,Abraxas Petroleum Corp. 395 Williston,1011185,18803 Meisner Dr.,29.61619,-98.48208,San Antonio,BEXAR,TX,78258,ABRAXAS PETROLEUM CORP (100%),17615,W
2017,Acadia Power Station,1001347,30385 CROWLEY EUNICE HWY,30.4284,-92.4112,EUNICE,Acadia,LA,70535,CLECO CORPORATE HOLDINGS LLC (50%); ENTERGY CORP (50%),1879715,D
2017,Accident Station,1008234,196 Texas Eastern Drive,39.633667,-79.340479,Accident,GARRETT COUNTY,MD,21520,Enbridge (US) Inc (100%),21266,"C,W"
2017,Acero Junction Inc.,1013051,1500 Commercial Ave,40.314524,-80.614763,Mingo Junction,JEFFERSON COUNTY,OH,43938,Acero Junction Inc (100%),33335,C
2017,Ackerman Combined Cycle,1000125,2510 PENSACOLA ROAD,33.3806,-89.2039,ACKERMAN,Choctaw,MS,39735,,1275841,D
2017,Acme Brick - Denton Plant,1011325,220 East Daniels St,33.185961,-97.136665,Denton,DENTON COUNTY,TX,76205,BERKSHIRE HATHAWAY INC (100%),27964,C
2017,Acme Brick - Texas Clay Plants,1012051,402 E Bartlett,32.166628,-96.017302,Malakoff,HENDERSON COUNTY,TX,75148,BERKSHIRE HATHAWAY INC (100%),19009,C
2017,Ada County Solid Waste Management,1003446,10300 Seaman's Gulch Road,43.705695,-116.281228,Boise,ADA COUNTY,ID,83714,ADA COUNTY (100%),3,"C,HH"
2017,Addis Carbon Black Plant,1000603,5221 Sid Richardson Road,30.3288,-91.2792,Addis,WEST BATON ROUGE PARISH,LA,70710,SID RICHARDSON CARBON & ENERGY CO (100%),318161,"C,X"
2017,AdvanSix Resins & Chemicals LLC,1000089,2501 MARGARET STREET,40.0067,-75.0686,PHILADELPHIA,Philadelphia,PA,19137,ADVANSIX INC (100%),152031,C
2017,Advanced Graphite Materials LLC,1005068,2698 PHILIPPI PIKE,39.25496,-80.29091,ANMOORE,HARRISON COUNTY,WV,26323,Advanced Graphite Materials LLC (100%),17934,C
2017,"Advanced Tri-Gen Power Systems, LLC",1006553,1823 East Neal Lane,40.843013,-89.564082,Mossville,PEORIA COUNTY,IL,61552,CATERPILLAR INC (100%),138489,C
2017,"Aemetis Advanced Fuels Keyes, Inc.",1012089,4209 Jessup Road,37.5350396,-120.9646866,Ceres,,CA,95307,AEMETIS INC (100%),74897,C
2017,Aera Energy 25 Hill,1002316,29235 Highway 33,35.09233,-119.407371,Maricopa,KERN,CA,93252,SHELL OIL CO (51.8%); EXXONMOBIL CORP (48.2%),179627,C
2017,Aera Energy Alberta Finley Shale,1002156,25401 Highway 33,35.23147,-119.57948,Fellows,KERN COUNTY,CA,93224,SHELL OIL CO (51.8%); EXXONMOBIL CORP (48.2%),99761,C
2017,Aera Energy Anderson Fitzgerald,1006844,59231 Main Camp Road,35.299879,-119.742604,McKittrick,KERN,CA,93251,SHELL OIL CO (51.8%); EXXONMOBIL CORP (48.2%),111312,C
2017,Aera Energy Belridge,1006845,59231 Main Camp Road,35.45306,-119.719337,McKittrick,KERN,CA,93251,SHELL OIL CO (51.8%); EXXONMOBIL CORP (48.2%),1665203,"C,NN,W"
2017,Aera Energy Buena Fe,1003702,29235 Highway 33,35.09233,-119.407371,Maricopa,KERN,CA,93252,SHELL OIL CO (51.8%); EXXONMOBIL CORP (48.2%),21355,C
2017,Aera Energy Calso,1002315,59231 Main Camp Road,35.299879,-119.742604,McKittrick,KERN,CA,93251,SHELL OIL CO (51.8%); EXXONMOBIL CORP (48.2%),19258,C
2017,Aera Energy Coalinga,1006405,29010 Shell Road,36.24005,-120.32416,Coalinga,FRESNO COUNTY,CA,93210,SHELL OIL CO (51.8%); EXXONMOBIL CORP (48.2%),226042,C
2017,Aera Energy Coastal G and B,1012355,66893 Sargent Road,35.973849,-120.8269231,San Ardo,,CA,93450,SHELL OIL CO (51.8%); EXXONMOBIL CORP (48.2%),129,W
2017,Aera Energy Lockwood,1012480,29235 Highway 33,35.0892,-119.4069,Maricopa,,CA,93525,SHELL OIL CO (51.8%); EXXONMOBIL CORP (48.2%),18059,C
2017,Aera Energy Lost Hills,1005790,59231 Main Camp Road,35.299879,-119.742604,McKittrick,KERN,CA,93251,SHELL OIL CO (51.8%); EXXONMOBIL CORP (48.2%),187438,C
2017,Aera Energy MOCO,1006914,29235 Highway 33,35.09233,-119.407371,Maricopa,KERN,CA,93252,SHELL OIL CO (51.8%); EXXONMOBIL CORP (48.2%),300692,C
2017,Aera Energy Metson,1005635,29235 Highway 33,35.09233,-119.407371,Maricopa,KERN,CA,93252,SHELL OIL CO (51.8%); EXXONMOBIL CORP (48.2%),46350,C
2017,Aera Energy Penn Zier,1012475,29010 Shell Road,36.2615718,-120.4357631,Coalinga,,CA,93210,SHELL OIL CO (51.8%); EXXONMOBIL CORP (48.2%),73289,C
2017,Aera Energy San Ardo,1006846,66893 Sargent Road,35.95232,-120.86046,San Ardo,MONTEREY COUNTY,CA,93450,SHELL OIL CO (51.8%); EXXONMOBIL CORP (48.2%),425819,C
2017,Aera Energy San Joaquin Basin,1008346,10000 Ming Avenue,35.1268513,-119.1855785,Bakersfield,,CA,93311,SHELL OIL CO (51.8%); EXXONMOBIL CORP (48.2%),9120,W
2017,Aera Energy San Joaquin G and B,1012357,10000 Ming Avenue,35.1268513,-119.1855785,Bakersfield,,CA,93311,SHELL OIL CO (51.8%); EXXONMOBIL CORP (48.2%),40903,W
2017,Aethon Energy Operating- 230- Arkla Boosting and Gathering,1012723,12377 Merit Dr. Suite 1200,32.91593,-96.77249,Dallas,DALLAS COUNTY,TX,75251,AETHON ENERGY (100%),173756,W
2017,Aethon Energy Operating-230-Arkla Basin,1012509,12377 Merit Dr. Suite 1200,32.9208727,-96.7734911,Dallas,,TX,75251,AETHON ENERGY (100%),51944,W
2017,Afton Generating Station,1006556,10100 WEST AFTON ROAD,32.1134,-106.848,LA MESA,Dona Ana,NM,88044,PNM RESOURCES INC (100%),181290,"C,D"
2017,Ag Processing Inc,1002365,2753 Port Neal Circle,42.305176,-96.362271,Sergeant Bluff,WOODBURY COUNTY,IA,51054,AG PROCESSING INC (100%),69042,C
2017,Agra Resources LLC dba POET BIOREFINING - GLENVILLE,1000857,15300 780TH AVE,43.576024,-93.301823,ALBERT LEA,FREEBORN COUNTY,MN,56007,,66656,"C,PP"
2017,Agri-Mark,1011305,869 Exchange St,44.03105,-73.17078,Middlebury,ADDISON COUNTY,VT,5753,AGRI-MARK INC (100%),20687,C
2017,Agropur,1012864,547 West Nez Perce,42.709612,-114.527559,Jeorme,JEROME COUNTY,ID,83338,AGROPUR INC (100%),29534,C
2017,Agropur Inc.,1012857,2915 County Road Ab,44.556959,-87.764596,Luxemburg,BROWN COUNTY,WI,54217,AGROPUR INC (100%),26854,C
2017,Agua Fria Generating Station,1007206,7302 W NORTHERN AVE,33.5542,-112.2161,GLENDALE,Maricopa,AZ,85303,SALT RIVER PROJECT (100%),135590,"C,D"
2017,Agua Mansa Power,1000423,2040 AGUA MANSA ROAD,34.0414,-117.3603,COLTON,San Bernardino,CA,92324,CITY OF COLTON CA (100%),6489,D
2017,"Ahlstrom Filtration, LLC.",1011038,1200 East Elm Street,39.55535,-89.28065,Taylorville,CHRISTIAN COUNTY,IL,62568,AHLSTROM FILTRATION LLC (100%),16526,C
2017,Air Liquide Hydrogen Plant,1007253,8581 South Texas Road,48.46628,-122.56745,Anacortes,SKAGIT COUNTY,WA,98221,AMERICAN AIR LIQUIDE HOLDINGS INC (100%),63461,P
2017,Air Liquide Large Industries US - SMR,1006711,11400 Bay Area Blvd.,29.623333,-95.045833,Pasadena,HARRIS COUNTY,TX,77507,AMERICAN AIR LIQUIDE HOLDINGS INC (100%),657652,P
2017,Air Products LLC - Corpus Christi,1004442,5401 Up River Road,27.809555,-97.457489,Corpus Christi,NUECES,TX,78407,AIR PRODUCTS & CHEMICALS INC (100%),197436,P
2017,Air Products LLC - Pasadena Plant,1003007,1423 Pasadena Freeway,29.716191,-95.194361,Pasadena,HARRIS COUNTY,TX,77506,AIR PRODUCTS & CHEMICALS INC (100%),19176,C
2017,Air Products LLC - Pasadena SMR,1006943,1435 Highway 225,29.716191,-95.194361,Pasadena,HARRIS COUNTY,TX,77506,AIR PRODUCTS & CHEMICALS INC (100%),562436,P
2017,Air Products La Porte Facility,1003160,10202 Strang Rd,29.702,-95.071,La Porte,HARRIS,TX,77571,AIR PRODUCTS & CHEMICALS INC (100%),86834,"C,D"
2017,Air Products Port Arthur Facility,1006402,1801 S Gulfway Dr within Valero Refinery,29.859444,-93.965833,Port Arthur,JEFFERSON COUNTY,TX,77640,AIR PRODUCTS & CHEMICALS INC (100%),2618394,"C,P,PP"
2017,Air Products and Chemicals - Norco SMR,1011460,14885 Airline Drive,30.0169,-90.40874,Norco,ST JOHN THE BAPTIST,LA,70079,AIR PRODUCTS & CHEMICALS INC (100%),1169458,P
2017,Air Products and Chemicals Inc. Luling SMR Facility,1010506,12501 River Road B,29.92444,-90.352217,Luling,ST. CHARLES PARISH,LA,70070,AIR PRODUCTS & CHEMICALS INC (100%),722823,P
2017,Air Products and Chemicals Inc./Detroit Hydrogen Facility Marathon Refinery,1010625,1025 Oakwood Blvd,42.28689,-83.15642,Detroit,WAYNE COUNTY,MI,48217,AIR PRODUCTS & CHEMICALS INC (100%),371991,P
2017,"Air Products and Chemicals, Inc.",1005573,4900 Este Avenue,39.18291,-84.50394,Cincinnati,HAMILTON COUNTY,OH,45232,AIR PRODUCTS & CHEMICALS INC (100%),22120,"C,P"
2017,"Air Products and Chemicals, Inc. - BR SMR",1004586,2 Gulf States Utility Rd,30.493536,-91.187226,"Baton Rouge, La",EAST BATON ROUGE PARISH,LA,70805,AIR PRODUCTS & CHEMICALS INC (100%),934705,P
2017,"Air Products and Chemicals, Inc. - Joliet, IL H2 Plant",1005852,25915 S.E. Frontage Road (c/o ExxonMobil),41.413831,-88.18346,Channahon,WILL COUNTY,IL,60410,AIR PRODUCTS & CHEMICALS INC (100%),98269,P
2017,Ajax Plant,1010475,16600 CR N,35.546399,-100.116256,Wheeler,WHEELER,TX,79014,ENBRIDGE ENERGY MANAGEMENT (100%),56102,"C,W"
2017,Aka Energy LLC Denver Basin Gathering & Boosting,1012439,13472 Weld County Road,40.2847036,-104.77616,Gilcrest,,CO,80623,AKA ENERGY GROUP LLC (100%),60742,W
2017,Aka Energy Permian Basin Gathering & Boosting,1012432,,32.8146,-103.7705,Maljamar,LEA COUNTY,NM,88264,AKA ENERGY GROUP LLC (100%),100721,W
2017,Akutan Seafood Processing Facility,1010624,1 Salmon Lane,54.132189,-165.786894,Akutan,ALEUTIANS EAST,AK,99553,TRIDENT SEAFOODS CORP (100%),48867,C
2017,"Akzo Nobel Functional Chemicals, LLC",1010593,13440 Highway 43 North,30.969439,-88.0175,Axis,MOBILE COUNTY,AL,36505,AKZO NOBEL CHEMICALS INC (100%),22691,C
2017,Aladdin Manufacturing - Glasgow facility,1006235,404 ANDERSON STREET,37.636098,-79.446543,GLASGOW,ROCKBRIDGE COUNTY,VA,24555,MOHAWK INDUSTRIES INC (100%),14575,C
2017,Alamo Gas Plant,1012815,1277 CR 3020,31.2816037,-95.5197394,Crockett,,TX,75835,ENERGY TRANSFER PARTNERS LP (100%),96473,"C,W"
2017,Alamo San Antonio Cement Plant,1007208,6055 West Green Mountain Road,29.610148,-98.367792,San Antonio,BEXAR COUNTY,TX,78266,ALAMO CEMENT CO (100%),805066,H
2017,"Alaska Village Electric Cooperative, Inc.",1010937,4831 Eagle Street,61.17697,-149.87559,Anchorage,ANCHORAGE MUNICIPALITY,AK,99503,ALASKA VILLAGE ELECTRIC COOPERATIVE (100%),30752,C
2017,Albemarle Corporation Bayport Plant,1003570,13000 Bay Park Road,29.64174,-95.0654,Pasadena,HARRIS COUNTY,TX,77507,ALBEMARLE CORP (100%),112353,C
2017,"Albert Einstein College of Medicine, Inc.",1009825,1300 Morris Park Ave,40.85112,-73.84435,Bronx,BRONX,NY,10461,ALBERT EINSTEIN COLLEGE OF MEDICINE (100%),38987,C
2017,Alcoa USA Corp.,1012517,1814 State Highway 131,44.965592,-74.892556,Massena,ST. LAWRENCE COUNTY,NY,13662,ALCOA CORP (100%),267024,"C,F"
2017,Alex Ty Cooke Generating Station,1000955,3500 E SLATON HWY,33.5211,-101.7906,LUBBOCK,Lubbock,TX,79404,CITY OF LUBBOCK TEXAS (100%),2557,"C,D"
2017,Alexander City,1012943,452 Brick Plant Road,33.005502,-85.899101,Alexander City,TALLAPOOSA COUNTY,AL,35010,Enbridge (US) Inc (100%),34099,"C,W"
2017,"Alexander Orr, Jr. Water Treatment Plant",1012573,6800 SW 87TH AVE,25.708072,-80.336146,MIAMI,MIAMI-DADE COUNTY,FL,33173,MIAMI DADE PUBLIC WORKS & WASTE MANAGEMENT DEPARTMENT (100%),29128,C
2017,"Alexin, LLC",1010531,1390 S. Adams Street,40.72133,-85.20312,Bluffton,WELLS COUNTY,IN,46714,ALEXIN LLC (100%),26580,C
2017,Algonquin Gas Transmission L.L.C.,1012420,5400 Westheimer Court,29.74013,-95.47309,Houston,HARRIS COUNTY,TX,77056,Enbridge (US) Inc (100%),15,W
2017,"Algonquin Power Sanger, LLC",1005044,1125 Muscat Avenue,36.68508,-119.55227,Sanger,FRESNO COUNTY,CA,93657,ALGONQUIN POWER & UTILITIES CORP (100%),39363,C
2017,"Algonquin Power Windsor Locks, LLC",1006409,26 CANAL BANK RD,41.9227,-72.6255,WINDSOR LOCKS,Hartford,CT,6096,ALGONQUIN POWER & UTILITIES CORP (100%),89809,"C,D"
2017,All American Oil and Gas Company,1010707,3300 Manor St,35.5217431,-118.9062794,Bakersfield,,CA,93308,ALL AMERICAN OIL & GAS INC (100%),209801,W
2017,Allegany Generating Station,1001217,11537 ROUTE 19A,42.5083,-78.0661,Portageville,Allegany,NY,14536,ALLIANCE ENERGY GROUP (100%),15488,"C,D"
2017,Allegheny Energy Units 1 & 2,1007659,,40.5447,-79.7678,SPRINGDALE,Allegheny,PA,15144,"LS Power Development, LLC (100%)",81111,D
2017,"Allegheny Energy Units 3, 4 & 5",1007360,,40.5456,-79.7669,SPRINGDALE,Allegheny,PA,15144,"LS Power Development, LLC (100%)",1415032,D
2017,Allegheny Energy Units 8 & 9,1007454,GANS ROAD,39.7475,-79.8388,GANS,Fayette,PA,15439,"LS Power Development, LLC (100%)",44365,D
2017,Allen,1000916,2574 PLANT RD,35.0742,-90.1439,MEMPHIS,Shelby,TN,38109,,3609577,"C,D"
2017,Allen,1002050,,34.866489,-96.352924,Allen,HUGHES,OK,74825,ENABLE MIDSTREAM PARTNERS LP (100%),50647,"C,W"
2017,Allen S King,1000691,1103 KING PLANT RD,45.03,-92.7786,OAK PARK HEIGHTS,Washington,MN,55003,XCEL ENERGY (100%),2938999,"C,D"
2017,Alliance Compressor Station,1011298,12721 Highway 114,33.035137,-97.332832,Justin,DENTON,TX,76247,ENTERPRISE PRODUCTS PARTNERS LP (100%),41472,"C,W"
2017,"Alliance Petroleum Corporation, Gathering and Boosting Assets 160A",1013096,4150 Belden Village St NW #410,40.85524,-81.42614,Canton,STARK COUNTY,OH,44718,,48518,W
2017,Alliance Pipeline L.P. Albert Lea 25-A,1006841,85485 200th Street,43.64461,-93.15942,Albert Lea,FREEBORN COUNTY,MN,56007,ENBRIDGE ENERGY MANAGEMENT (50%); Pembina Pipeline CORP (50%),93675,"C,W"
2017,Almatis Burnside Inc,1006161,41237 Highway 22,30.148196,-90.909296,Burnside,ASCENSION PARISH,LA,70738,ALMATIS INC (100%),24644,C
2017,Almond Power Plant,1007315,4500 CROWS LANDING ROAD,37.5739,-120.9854,MODESTO,Stanislaus,CA,95358,TURLOCK IRRIGATION DISTRICT (100%),102191,D
2017,Alon Bakersfield Refining,1003689,6451 Rosedale Highway,35.3825,-119.070556,Bakersfield,KERN,CA,93308,ALON USA LP (100%),20064,C
2017,Alpaca Energy LLC,1013070,220 Romaine Ln.,41.663988,-76.808492,Canton,BRADFORD COUNTY,PA,17724,,23750,C
2017,"AlphaPET, Inc.",1005826,1301 Finley Island Road,34.64162,-87.05203,Decatur,MORGAN COUNTY,AL,35601,ALPHAPET INC (100%),41128,C
2017,Alpine Power Plant,1012152,7432 M-32,45.0540601,-84.8895541,Elmira,,MI,49730,WOLVERINE POWER SUPPLY COOPERATIVE INC (100%),317720,"C,D"
2017,Alsey Station,1000417,331 Campbell Road,39.5697,-90.4362,ALSEY,Scott,IL,62694,PRAIRIE POWER INC (100%),9911,"C,D"
2017,Alstom Grid LLC,1000039,One Power Lane,40.124713,-79.930463,Charleroi,WASHINGTON,PA,15022,GENERAL ELECTRIC CO (50.1%); ALSTOM INC (49.9%),198,"C,QQ,SS"
2017,"AltEn, LLC",1012036,1344 County Road 10,41.19502,-96.48368,Mead,SAUNDERS,NE,68041,ALTEN LLC (100%),10742,"C,II"
2017,"Alta Mesa Services, LP",1009511,"15021 Katy Freeway, Suite 400",29.78434,-95.64861,Houston,HARRIS COUNTY,TX,77094,ALTA MESA SERVICES LP (100%),52992,W
2017,AltaGas Ripon Energy Inc.,1001625,944 South Stockton Ave.,37.7313,-121.1161,Ripon,SAN JOAQUIN COUNTY,CA,95366,ALTAGAS LTD (100%),10235,C
2017,Altas 220/Gulf Coast - Eagle Ford,1011546,"1000 Commerce Drive, Suite 400",40.45917,-80.19482,Pittsburgh,ALLEGHENY COUNTY,PA,15275,ATLAS ENERGY GROUP LLC (100%),27282,W
2017,Alumax Mill Products Inc,1003379,1480 Manheim Pike,40.063333,-76.320556,Lancaster,LANCASTER COUNTY,PA,17604,ARCONIC INC (100%),115601,C
2017,"Alumax Mill Products, Inc.",1012374,300 Alumax Drive,33.450707,-94.134356,Texarkana,BOWIE COUNTY,TX,75501,ARCONIC INC (100%),40252,C
2017,Amber Junction Compressor Station,1003209,1081 County Road 1280,35.160203,-97.857536,AMBER,GRADY,OK,73004,ENABLE MIDSTREAM PARTNERS LP (100%),15607,"C,W"
2017,Ameren Illinois,1008026,300 Liberty Street,40.69048,-89.59244,Peoria,PEORIA COUNTY,IL,61602,AMEREN CORP (100%),1067,"NN,W"
2017,Ameren Missouri,1004034,1901 Chouteau Avenue,38.620785,-90.211635,St. Louis,SAINT LOUIS CITY,MO,63103,AMEREN CORP (100%),17,"NN,W"
2017,American Crystal Sugar Company - Drayton,1006878,8152 Old Highway 44,48.591667,-97.175,Drayton,PEMBINA,ND,58225,AMERICAN CRYSTAL SUGAR CO (100%),329094,"C,S,TT"
2017,"American Proteins, Inc. - Cumming",1007915,4990 Leland Drive,34.281587,-84.058034,Cumming,FORSYTH COUNTY,GA,30041,AMERICAN PROTEINS INC (100%),59526,"C,II"
2017,"American Sugar Refining, Inc. - Baltimore Refinery",1001859,1100 KEY HIGHWAY EAST,39.28023,-76.57112,BALTIMORE,BALTIMORE CITY,MD,21230,AMERICAN SUGAR REFINING INC (100%),98082,C
2017,"American Sugar Refining, Inc. - Yonkers Refinery",1001861,1 Federal St.,40.92564,-73.90465,Yonkers,WESTCHESTER COUNTY,NY,10705,AMERICAN SUGAR REFINING INC (100%),81017,C
2017,Ames,1005802,200 E 5TH ST,42.0247,-93.6069,AMES,Story,IA,50010,CITY OF AMES (100%),197930,D
2017,Amplify Energy Operating 260 East Texas Basin,1010839,"500 Dallas Street, Suite 1600",29.7555,-95.3616,Houston,HARRIS COUNTY,TX,77002,MEMORIAL RESOURCE DEVELOPMENT LLC (100%),67095,W
2017,"Amplify Energy Operating LLC 220 Gulf Coast Basin (LA, TX)",1009862,500 Dallas Street Suite 1600,29.7555,-95.3616,Houston,HARRIS COUNTY,TX,77002,MEMORIAL RESOURCE DEVELOPMENT LLC (100%),25894,W
2017,Amplify Energy Operation LLC 260 East Texas Basin GB,1012777,"500 Dallas Street, Suite 1600",29.75788,-95.37013,Houston,HARRIS COUNTY,TX,77002,MEMORIAL RESOURCE DEVELOPMENT LLC (100%),32931,W
2017,"Amsted Rail Company, Inc.",1003757,1700 Walnut Street,38.70316,-90.158809,Granite City,MADISON COUNTY,IL,62040,AMSTED RAIL CO INC (100%),17876,C
2017,Anadarko,1000865,701 B NE 7TH ST,35.0847,-98.23,ANADARKO,Caddo,OK,73005,WESTERN FARMERS ELECTRIC COOPERATIVE (100%),563439,"C,D"
2017,Anadarko Basin,1008200,5847 San Felipe Suite 3000,29.75476,-95.36985,Houston,,TX,77057,VANGUARD NATURAL RESOURCES INC (100%),1032,W
2017,Anadarko Basin Gathering and Boosting,1012663,"1200 Summit Ave, Suite 320",32.74631,-97.3416,Fort Worth,TARRANT COUNTY,TX,76102,CRESTWOOD MIDSTREAM PARTNERS LP (100%),18631,W
2017,Anadarko Facility,1008715,"840 Gessner Road, Suite 800",29.7726138,-95.514493,Houston,,TX,77024,Penn Virginia Corp (100%),457,W
2017,Anaheim Combustion Turbine,1001134,3071 E Miraloma Ave,33.8539,-117.8561,Anaheim,Orange,CA,92806,CITY OF ANAHEIM PUBLIC UTILITIES DEPARTMENT (100%),42075,D
2017,"Analog Devices, Inc./ Wilmington Manufacturing",1003759,"804 Woburn Street, MS-424",42.5307,-71.14958,Wilmington,MIDDLESEX COUNTY,MA,1887,ANALOG DEVICES INC (100%),4743,"C,I"
2017,Anchor Glass Container - Plant 41,1002181,151 E. MCCANN'S BLVD.,42.120763,-76.813168,ELMIRA HEIGHTS,CHEMUNG COUNTY,NY,14903,ANCHOR GLASS CONTAINER CORP (100%),95601,"C,N"
2017,Anchor Glass Container Corporation - Plant 14,1004943,1044 BOOTH RD,32.586745,-83.591784,WARNER ROBINS,HOUSTON,GA,31088,ANCHOR GLASS CONTAINER CORP (100%),104894,"C,N"
2017,Anchor Glass Container Corporation - Plant 15,1005074,601 E BOLLINGER RD,35.447778,-95.962778,HENRYETTA,OKMULGEE COUNTY,OK,74437,ANCHOR GLASS CONTAINER CORP (100%),96025,"C,N"
2017,Anchor Glass Container Corporation. - Plant 07,1004941,2121 HURON ST,30.349681,-81.712584,JACKSONVILLE,DUVAL COUNTY,FL,32254,ANCHOR GLASS CONTAINER CORP (100%),64294,"C,N"
2017,Anchor Glass Container Corporation. - Plant 12,1004942,4108 VALLEY INDUSTRIAL BLVD N,44.79873,-93.46704,SHAKOPEE,SCOTT COUNTY,MN,55379,ANCHOR GLASS CONTAINER CORP (100%),73984,"C,N"
2017,Anchor Glass Container. - Plant 42,1002178,200 W BELLEVIEW,39.125,-84.85545,LAWRENCEBURG,DEARBORN COUNTY,IN,47025,ANCHOR GLASS CONTAINER CORP (100%),42089,"C,N"
2017,Anclote Power Plant,1007246,1729 BAILLIES BLUFF ROAD,28.1844,-82.7887,HOLIDAY,Pasco,FL,34691,DUKE ENERGY CORP (100%),1664541,"C,D"
2017,Andeavor EL PASO ALL SITES,1003564,212 North Clark Street,31.76945,-106.41426,EL PASO,EL PASO COUNTY,TX,79905,Andeavor (100%),1143634,"C,MM,P,Y"
2017,Angus Anson,1001097,7100 EAST RICE ST,43.6033,-96.6369,SIOUX FALLS,Minnehaha,SD,57101,XCEL ENERGY (100%),47976,"C,D"
2017,Anheuser-Busch LLC. - St. Louis Brewery,1002037,One Busch Place,38.5961,-90.2128,St. Louis,ST. LOUIS CITY,MO,63118,ANHEUSER-BUSCH COS LLC (100%),90673,"C,PP"
2017,Anna Platform,1001756,,60.97640050572,-151.3151066962,Anchorage,KENAI PENINSULA,AK,99503,HILCORP ENERGY CO (100%),17024,"C,W"
2017,Antelope Hills Gas Plant,1008268,,35.996714,-100.12421,Glazier,HEMPHILL COUNTY,TX,79014,ENERGY TRANSFER PARTNERS LP (100%),28031,"C,W"
2017,Antelope Station,1006652,1454 CR 315,33.866995,-101.866362,ABERNATHY,HALE,TX,79311,GOLDEN SPREAD ELECTRIC COOPERATIVE (100%),47981,C
2017,Antelope Valley,1001055,HWY 200,47.3714,-101.8344,BEULAH,Mercer,ND,58523,BASIN ELECTRIC POWER COOPERATIVE (100%),6702369,D
2017,Antero Midstream LLC- 160 Basin,1012714,1615 Wynkoop Street,39.752016,-105.000734,Denver,DENVER COUNTY,CO,80202,ANTERO RESOURCES CORP (100%),52697,W
2017,Antero Midstream LLC- 160A Basin,1012652,1615 Wynkoop Street,39.752016,-105.000734,Denver,DENVER COUNTY,CO,80202,ANTERO RESOURCES CORP (100%),670307,W
2017,Antero Resources - 160 - Appalachian Basin (Utica),1010718,1615 Wynkoop Street,39.7541032,-105.0002242,Denver,,CO,80202,ANTERO RESOURCES CORP (100%),86270,W
2017,Antero Resources - 160A - Appalachian Basin (Eastern Overthurst Area),1010183,1615 Wynkoop Street,39.75231,-104.99906,Denver,DENVER COUNTY,CO,80202,ANTERO RESOURCES CORP (100%),254473,W
2017,Apache Corp. Central - Anadarko Basin 360,1009335,2000 Post Oak Blvd.,29.7484861,-95.4699173,Houston,,TX,77056,APACHE CORP (100%),228055,W
2017,Apache Corp. GC Onshore - Gulf Coast Basin 220,1008224,"2000 Post Oak, Suite 100",29.74592,-95.55962,Houston,HARRIS COUNTY,TX,77056,APACHE CORP (100%),15482,W
2017,Apache Corp. Permian - Crane Gas Plant,1009986,303 Veterans Airpark Ln,32.03544,-102.08652,Midland,MIDLAND COUNTY,TX,79705,NAVITAS MIDSTREAM (100%),36835,C
2017,Apache Corp. Permian - Permian Basin 430,1009391,303 Veterans Airpark Ln,32.03544,-102.08652,Midland,MIDLAND COUNTY,TX,79705,APACHE CORP (100%),165656,W
2017,Apache Corporation + 430 + Permian Basin,1011803,"17802 Highway 10 West, Suite 300",29.610018,-98.604853,San Antonio,,TX,78257,APACHE CORP (100%),263085,W
2017,Apache Station,1005949,3525 N US HWY 191,32.0619,-109.8931,COCHISE,Cochise,AZ,85606,ARIZONA ELECTRIC COOPERATIVE CORP (100%),1792151,"C,D"
2017,Apex Generating Station,1000068,15555 APEX POWER PARKWAY,36.4178,-114.9622,LAS VEGAS,Clark,NV,89165,SOUTHERN CALIFORNIA PUBLIC POWER AUTHORITY (100%),1187512,"C,D"
2017,Appalachian Basin (Eastern Overthrust Area),1010721,10000 Energy Dr,29.93876,-95.3509,Spring,HARRIS COUNTY,TX,77389,SOUTHWESTERN ENERGY CO (100%),163477,W
2017,Appalachian Basin (Eastern Overthrust Area) Gathering and Boosting,1012584,"1200 Summit Ave, Suite 320",32.74631,-97.3416,Fort Worth,TARRANT COUNTY,TX,76102,CRESTWOOD MIDSTREAM PARTNERS LP (100%),344378,W
2017,Appalachian Basin - AAPG Province 160A,1008937,"33 West Thrid Street, Suite 300",41.241182,-77.0010648,Williamsport,,PA,17701,ARD OPERATING LLC (100%),2577,W
2017,Appalachian Basin Gathering & Boosting - AAPG Province 160A,1012241,1201 Lake Robbins Drive,30.16115,-95.45389,The Woodlands,MONTGOMERY COUNTY,TX,77380,ARD OPERATING LLC (100%),66267,W
2017,Applied Energy LLC Naval Station,1005566,"3970 Surface Navy Blvd, Bldg 3427",32.684066,-117.125996,San Diego,SAN DIEGO,CA,92136,ATLANTIC POWER CORP (100%),198849,C
2017,"Approach Operating, LLC 430 Permian Basin",1008456,6500 W Freeway Suite 800,32.717251,-97.443544,Fort Worth,TARRANT COUNTY,TX,76116,APPROACH RESOURCES INC (100%),36810,W
2017,Aptina LLC,1012992,1401 North Kings Road,43.59708,-116.53311,Nampa,CANYON COUNTY,ID,83687,SCI LLC (100%),1721,"C,I"
2017,Arapaho,1004686,,35.7481,-99.202,BUTLER,CUSTER,OK,73625,MPLX LP (100%),24681,"C,W"
2017,Arapahoe Combustion Turbine Facility,1001360,2601 SOUTH PLATTE RIVER ROAD,39.6692,-105.0018,DENVER,Denver,CO,80223,SOUTHWEST GENERATION OPERATING CO (100%),93179,"C,D"
2017,ArcelorMittal Cleveland LLC,1007177,3060 EGGERS AVENUE,41.4739,-81.6728,CLEVELAND,Cuyahoga,OH,44105,ARCELORMITTAL USA (100%),4400217,"C,Q"
2017,ArcelorMittal Columbus LLC,1006951,1800 Watkins Road,39.90428,-82.94609,Columbus,FRANKLIN COUNTY,OH,43207,ARCELORMITTAL USA (100%),31134,C
2017,ArcelorMittal Indiana Harbor LLC,1000588,3001 Dickey Road,41.651165,-87.459167,East Chicago,LAKE COUNTY,IN,46312,ARCELORMITTAL USA (100%),4684161,"C,Q"
2017,ArcelorMittal Minorca Mine,1003669,5950 Old Highway 53,47.559109,-92.518973,Virginia,ST. LOUIS COUNTY,MN,55792,ARCELORMITTAL USA (100%),216400,"C,Q"
2017,ArcelorMittal Plate LLC - Gary Plate,1000895,1 North Broadway,41.608722,-87.337224,Gary,LAKE,IN,46402,ARCELORMITTAL USA (100%),8817,C
2017,ArcelorMittal Weirton LLC,1000260,100 Pennsylvania Avenue,40.422,-80.5955,WEIRTON,Hancock,WV,26062,ARCELORMITTAL USA (100%),163214,C
2017,Archer Daniels Midland,1003476,400 E. Holt St.,39.169552,-91.879288,Mexico,AUDRAIN COUNTY,MO,65265,ARCHER DANIELS MIDLAND CO (100%),29582,C
2017,Archer Daniels Midland Co.,1005661,4666 FARIES PARKWAY,39.8675,-88.885,DECATUR,Macon,IL,62521,ARCHER DANIELS MIDLAND CO (100%),4452501,"C,II,RR (RPT)"
2017,Archer Daniels Midland Co. - Peoria,1000466,FOOT OF EDMUND ST,40.6776,-89.6069,PEORIA,Peoria,IL,61602,ARCHER DANIELS MIDLAND CO (100%),567442,C
2017,Arconic Inc. - Cleveland Works,1005286,1600 HARVARD AVENUE,41.4476,-81.67533,CUYAHOGA HEIGHTS,CUYAHOGA COUNTY,OH,44105,ARCONIC INC (100%),80106,"C,TT"
2017,Ardagh Glass Inc. (Bridgeton),1002504,443 S EAST AVE,39.409,-75.21958,BRIDGETON,CUMBERLAND COUNTY,NJ,8302,ARDAGH GROUP (100%),57112,"C,N"
2017,Ardagh Glass Inc. (Burlington),1005977,815 SOUTH MCHENRY STREET,42.6626,-88.2906,BURLINGTON,RACINE COUNTY,WI,53105,ARDAGH GROUP (100%),67643,"C,N"
2017,Ardagh Glass Inc. (Dolton),1000105,13850 COTTAGE GROVE AVENUE,41.64212,-87.59966,DOLTON,COOK,IL,60419,ARDAGH GROUP (100%),83059,"C,N"
2017,Ardagh Glass Inc. (Dunkirk),1000002,524 E. CENTER STREET,40.371053,-85.198134,DUNKIRK,JAY COUNTY,IN,47336,ARDAGH GROUP (100%),115853,"C,N"
2017,Ardagh Glass Inc. (Henderson),1000003,620 Facet Road,36.291066,-78.391883,Henderson,VANCE COUNTY,NC,27537,ARDAGH GROUP (100%),80159,"C,N"
2017,Ardagh Glass Inc. (Lincoln),1000004,1200 NORTH LOGAN STREET,40.157643,-89.353796,LINCOLN,LOGAN COUNTY,IL,62656,ARDAGH GROUP (100%),57851,"C,N"
2017,Ardagh Glass Inc. (Madera),1000005,24441 AVENUE 12 & ROAD 24 1/2,36.92375,-120.10412,MADERA,MADERA COUNTY,CA,93637,ARDAGH GROUP (100%),82389,"C,N"
2017,Ardagh Glass Inc. (Milford),1000006,1 NATIONAL STREET,42.127778,-71.510556,MILFORD,WORCESTER,MA,1757,ARDAGH GROUP (100%),37285,"C,N"
2017,Ardagh Glass Inc. (Pevely),1000028,1500 Ardagh Group Drive,38.295167,-90.400944,PEVELY,JEFFERSON COUNTY,MO,63070,ARDAGH GROUP (100%),83228,"C,N"
2017,Ardagh Glass Inc. (Port Allegany),1000020,ONE GLASS PLACE,41.81787,-78.28699,PORT ALLEGANY,MCKEAN COUNTY,PA,16743,ARDAGH GROUP (100%),63345,"C,N"
2017,Ardagh Glass Inc. (Ruston),1000021,4241 HIGHWAY 563,32.546411,-92.763639,SIMSBORO,LINCOLN PARISH,LA,71275,ARDAGH GROUP (100%),100192,"C,N"
2017,Ardagh Glass Inc. (Salem),1002009,83 GRIFFITH ST,39.574909,-75.469493,SALEM,SALEM COUNTY,NJ,8079,ARDAGH GROUP (100%),1631,C
2017,Ardagh Glass Inc. (Sapulpa),1000023,1000 NORTH MISSION STREET,36.009924,-96.099233,SAPULPA,CREEK COUNTY,OK,74066,ARDAGH GROUP (100%),120808,"C,N"
2017,Ardagh Glass Inc. (Seattle),1000024,5801 EAST MARGINAL WAY SOUTH,47.55262,-122.33655,SEATTLE,KING COUNTY,WA,98134,ARDAGH GROUP (100%),75278,"C,N"
2017,Ardagh Glass Inc. (Wilson),1000026,2201 FIRESTONE PARKWAY,35.7608,-77.8833,WILSON,WILSON COUNTY,NC,27893,ARDAGH GROUP (100%),42742,"C,N"
2017,Ardagh Glass Inc. (Winchester),1006060,603 E NORTH ST,40.173694,-84.971694,WINCHESTER,RANDOLPH COUNTY,IN,47394,ARDAGH GROUP (100%),95487,"C,N"
2017,Area 11B CGP,1011692,5911 County Road 136,28.62348,-97.99428,Pawnee,BEE COUNTY,TX,78145,PIONEER NATURAL RESOURCES USA INC (100%),21437,"C,W"
2017,Area 51 CGP Facility,1008677,5911 County Road 136,28.651637,-98.000845,Pawnee,BEE COUNTY,TX,78145,ENTERPRISE PRODUCTS PARTNERS LP (100%),48278,"C,W"
2017,Area 71 CGP Facility,1008680,5911 County Road 136,28.651637,-98.000845,Pawnee,BEE COUNTY,TX,78145,ENTERPRISE PRODUCTS PARTNERS LP (100%),61352,"C,W"
2017,Area 71B CGP Facility,1012986,,28.9579,-97.6946,Nordheim,DEWITT COUNTY,TX,78141,ENTERPRISE PRODUCTS PARTNERS LP (100%),52760,"C,W"
2017,Area 72 CGP Facility,1008681,5911 County Road 136,28.651637,-98.000845,5911 County Road 136,BEE COUNTY,TX,78145,ENTERPRISE PRODUCTS PARTNERS LP (100%),56519,"C,W"
2017,Arecibo Landfill,1005158,"Carr. PR-682 Interior, Sector Garrochales, Bo. Factor II",18.466542,-66.625644,Arecibo,ARECIBO,PR,612,MUNICIPALITY OF ARECIBO (100%),57,"C,HH"
2017,Argos Cement LLC,1005458,4000 NORTHWEST COUNTY ROAD 235,29.690671,-82.582134,NEWBERRY,ALACHUA COUNTY,FL,32669,ARGOS USA (100%),762362,H
2017,Argos Cement LLC - Harleyville Plant,1002750,463 JUDGE STREET,33.226205,-80.452832,HARLEYVILLE,DORCHESTER COUNTY,SC,29448,ARGOS USA (100%),669097,"C,H"
2017,"Argos San Juan, Corp.",1006164,"Road PR-2, Km 26.7",18.3944,-66.2976,Dorado,DORADO MUNICIPIO,PR,646,ESSROC CEMENT CO (100%),116083,"C,H"
2017,Arkansas Loop & Simpson Treating Plants,1001760,,37.0532,-107.7855,DURANGO,LA PLATA,CO,81303,SOUTHERN UTE INDIAN TRIBE (51%); KINDER MORGAN INC (49%),251369,"C,W"
2017,Arkansas Oklahoma Gas Corp (AR),1004975,5030 South S Street,35.36353,-94.37573,Fort Smith,SEBASTIAN COUNTY,AR,72903,ARKANSAS OKLAHOMA GAS CORP (100%),11,"NN,W"
2017,Arkansas Oklahoma Gas Corp (OK),1006481,5030 South S Street,35.36353,-94.37573,Fort Smith,SEBASTIAN COUNTY,AR,72903,ARKANSAS OKLAHOMA GAS CORP (100%),4,"NN,W"
2017,Arkla Basin,1010705,10000 Energy Dr,29.93876,-95.3509,Spring,HARRIS COUNTY,TX,77389,SOUTHWESTERN ENERGY CO (100%),3908,W
2017,Arkla Gathering and Boosting,1013076,1050 17th St. Suite 800,39.748472,-104.994034,Denver,DENVER COUNTY,CO,80625,,34078,W
2017,Arkoma,1004404,,34.63339,-96.17768,Coalgate,COAL,OK,74538,MPLX LP (100%),32644,"C,W"
2017,Arkoma Basin,1010205,10000 Energy Dr,29.93876,-95.3509,Spring,HARRIS COUNTY,TX,77389,SOUTHWESTERN ENERGY CO (100%),119256,W
2017,Arkoma Basin,1008199,5847 San Felipe Suite 3000,29.749708,-95.48197,Houston,,TX,77057,VANGUARD NATURAL RESOURCES INC (100%),8179,W
2017,Arkoma Basin Gathering and Boosting,1012656,"1200 Summit Avenue, Suite 320",32.74631,-97.3416,Fort Worth,TARRANT COUNTY,TX,76102,CRESTWOOD MIDSTREAM PARTNERS LP (100%),85316,W
2017,Arlington Landfill,1002645,800 Mosier Valley Road,32.80776,-97.10376,Euless,TARRANT COUNTY,TX,76040,CITY OF ARLINGTON (100%),12,"C,HH"
2017,Arlington Valley Energy Facility,1001399,39027 W ELLIOT ROAD,33.3417,-112.8897,ARLINGTON,Maricopa,AZ,85322,HIGHSTAR CAPITAL (100%),801367,"C,D"
2017,Armagh Compressor Station,1000315,862 HORSE THIEF ROAD,40.4319,-79.085,NEW FLORENCE,Indiana,PA,15944,Enbridge (US) Inc (100%),37917,"C,W"
2017,Armstrong Gas Plant,1004087,13072 FM 682,29.133889,-97.039161,Yoakum,DEWITT COUNTY,TX,77995,ENTERPRISE PRODUCTS PARTNERS LP (100%),125423,"C,NN,W"
2017,"Armstrong Power, LLC",1005709,2313 STATE ROUTE 156,40.6383,-79.3503,SHELOCTA,Armstrong,PA,15774,LS POWER DEVELOPMENT LLC (100%),761660,D
2017,Armstrong World Industries Inc,1006883,4520 Broadway,32.773497,-83.6516,Macon,BIBB COUNTY,GA,31206,ARMSTRONG WORLD INDUSTRIES INC (100%),79031,C
2017,Arnold Engineering Development Center,1003846,"100 Kindel Drive, Suite B-327",35.383056,-86.043611,Arnold AFB,COFFEE,TN,37389,,24943,C
2017,Arrowhead Gas Plant,1012906,2387 Hwy 1450,31.2403011,-103.065333,Coyanosa,,TX,79730,ENERGY TRANSFER PARTNERS LP (100%),18928,"C,W"
2017,Arroyo Grande Production Facility,1002978,1821 PRICE CANYON ROAD,35.1814,-120.61965,SAN LUIS OBISPO,SAN LUIS OBISPO COUNTY,CA,93401,SENTINEL PEAK RESOURCES (100%),92916,W
2017,Arsenal Hill Power Plant,1001609,520 NORTH ALLEN,32.5181,-93.7611,SHREVEPORT,Caddo,LA,71101,AMERICAN ELECTRIC POWER (100%),1119479,D
2017,Arsenal Midstream LLC 160A Appalachian Basin GB,1012861,"6031 Wallace Road Ext., Suite 300",40.63381,-80.0646,Wexford,ALLEGHENY COUNTY,PA,15090,ARSENAL RESOURCES LLC (100%),23564,W
2017,"Arsenal Resources, LLC 160A Appalachian Basin",1008795,"6031 Wallace Road Ext, Suite 300",39.301158,-80.209822,Wexford,HARRISON COUNTY,PA,15090,MOUNTAINEER KEYSTONE LLC (100%),43556,W
2017,Arthur Kill,1000759,4401 VICTORY BLVD,40.5915,-74.2027,Staten Island,Richmond,NY,10314,NRG ENERGY INC (100%),508455,"C,D"
2017,Arvah B Hopkins,1007189,1125 GEDDIE ROAD,30.4522,-84.4,TALLAHASSEE,Leon,FL,32304,CITY OF TALLAHASSEE (100%),660495,"C,D"
2017,Asbury,1007311,21133 UPHILL LANE,37.3596,-94.5913,ASBURY,Jasper,MO,64832,THE EMPIRE DISTRICT ELECTRIC CO (100%),1137480,D
2017,Ascend (Decatur Plant),1000158,1050 CHEMSTRAND AVENUE,34.6339,-87.0244,DECATUR,Morgan,AL,35601,ASCEND PERFORMANCE MATERIALS LLC (100%),526909,"C,P,PP"
2017,Ascend Performance Materials LLC,1004962,3000 Old Chemstrand Road,30.596678,-87.251977,Cantonment,ESCAMBIA COUNTY,FL,32533,ASCEND PERFORMANCE MATERIALS LLC (100%),1102284,"C,E,P,TT,V"
2017,"Ascent Resources - Marcellus, LLC",1011454,PO Box 13678,35.565478,-97.518049,Oklahoma City,,OK,73113,ASCENT RESOURCES LLC (100%),59120,W
2017,"Ascent Resources - Utica, LLC",1011393,PO Box 13678,35.565478,-97.518049,Oklahoma City,,OK,73113,ASCENT RESOURCES LLC (100%),15176,W
2017,Ash Grove Cement Company-LEAMINGTON,1002530,19090 West Highway 132,39.563527,-112.197061,Nephi,JUAB,UT,84648,ASH GROVE CEMENT CO (100%),654614,"C,H"
2017,Asheville Steam Electric Plant,1007180,200 CP&L DRIVE,35.4714,-82.5431,ARDEN,Buncombe,NC,28704,DUKE ENERGY CORP (100%),1326491,D
2017,Asphalt Hawaii Kalaeloa Asphalt Terminal,1004873,91-550 Malakole Street,21.31948,-158.116295,Kapolei,HONOLULU,HI,96707,GRACE PACIFIC LLC (70%); JAS W GLOVER LTD (30%),2661,"C,MM"
2017,Astoria Gas Turbine Power,1000132,31 01 20TH AVE,40.7864,-73.9133,ASTORIA,Queens,NY,11105,NRG ENERGY INC (100%),23569,"C,D"
2017,Astoria Generating Station,1007053,18-01 20TH AVE,40.7869,-73.9122,ASTORIA,Queens,NY,11105,ARCLIGHT CAPITAL PARTNERS LLC (100%),527480,"C,D"
2017,Athens Generating Company,1000101,9300 U S HIGHWAY 9W,42.2728,-73.8492,ATHENS,Greene,NY,12015,TALEN ENERGY CORP (100%),1485703,D
2017,Atlanta Gas Light Company,1007872,Ten Peachtree Place,33.780708,-84.387782,Atlanta,FULTON,GA,30309,SOUTHERN CO GAS (100%),3442,"NN,W"
2017,"Atlantis, MMS Platform ID 02481, Complex ID 1223-1",1004233,,27.19545638,-90.02698449,Offshore,,LA,0,BP AMERICA INC (56%); BHP BILLITON (44%),235321,"C,W"
2017,Atlas 160/Appalachia Basin - Ohio,1008483,"1000 Commerce Drive, Suite 400",40.4591,-80.19626,Pittsburgh,ALLEGHENY COUNTY,PA,15275,ATLAS ENERGY GROUP LLC (100%),2813,W
2017,Atlas 160A/Appalach Overthrust Basin - PA,1008480,"1000 Commerce Drive, Suite 400",40.4591,-80.19626,Pittsburgh,ALLEGHENY COUNTY,PA,15275,ATLAS ENERGY GROUP LLC (100%),2341,W
2017,Atlas 360/Anadarko Basin - Nash,1011547,"1000 Commerce Drive, Suite 400",40.4591,-80.19626,Pittsburgh,ALLEGHENY COUNTY,PA,15275,ATLAS ENERGY GROUP LLC (100%),4591,W
2017,Atlas 415/Strawn Basin - Fort Worth,1010235,"1000 Commerce Drive, Suite 400",40.4591,-80.19626,PIttsburgh,ALLEGHENY COUNTY,PA,15275,ATLAS ENERGY GROUP LLC (100%),13738,W
2017,Atlas 420/Fort Worth Syncline Basin - Jacksboro,1010237,"1000 Commerce Drive, Suite 400",40.4591,-80.19626,Pittsburgh,ALLEGHENY COUNTY,PA,15275,ATLAS ENERGY GROUP LLC (100%),9460,W
2017,Atlas-160-Appalachia-OH-B & G,1012440,1000 Commerce Drive,40.4591,-80.19626,Pittsburgh,ALLEGHENY COUNTY,PA,15275,ATLAS ENERGY GROUP LLC (100%),18750,W
2017,Atmos Energy Corporation - APT Howard,1006523,5430 LBJ Freeway,32.92548,-96.81613,Dallas,DALLAS,TX,75240,ATMOS ENERGY CORP (100%),47612,"C,W"
2017,Atmos Energy Corporation - Colorado,1004794,5430 LBJ Freeway,32.925488,-96.816137,Dallas,DALLAS,TX,75240,ATMOS ENERGY CORP (100%),21,"NN,W"
2017,Atmos Energy Corporation - Kansas,1001388,5430 LBJ Freeway,32.92548,-96.81613,Dallas,DALLAS,TX,75240,ATMOS ENERGY CORP (100%),20,"NN,W"
2017,Atmos Energy Corporation - Kentucky,1001389,5430 LBJ Freeway,32.92548,-96.81613,Dallas,DALLAS,TX,75240,ATMOS ENERGY CORP (100%),33,"NN,W"
2017,Atmos Energy Corporation - Louisiana,1001390,5430 LBJ Freeway,32.92548,-96.81613,Dallas,DALLAS,TX,75240,ATMOS ENERGY CORP (100%),57,"NN,W"
2017,Atmos Energy Corporation - Mississippi,1001391,5430 LBJ Freeway,32.92548,-96.81613,Dallas,DALLAS,TX,75240,ATMOS ENERGY CORP (100%),36,"NN,W"
2017,Atmos Energy Corporation - Tennessee,1006887,5430 LBJ Freeway,32.92548,-96.81613,Dallas,DALLAS,TX,75240,ATMOS ENERGY CORP (100%),23,"NN,W"
2017,Atmos Energy Corporation - Texas,1001398,5430 LBJ Freeway,32.92548,-96.81613,Dallas,DALLAS,TX,75240,ATMOS ENERGY CORP (100%),902,"NN,W"
2017,Atmos Energy Corporation- Virginia,1001402,5420 LBJ Freeway,32.92548,-96.81613,Dallas,DALLAS,TX,75240,ATMOS ENERGY CORP (100%),5,"NN,W"
2017,Attala Generating Plant,1007247,2500 ATTALA ROAD 4130,33.0142,-89.6758,SALLIS,Attala,MS,39160,ENTERGY CORP (100%),913482,"C,D"
2017,Auburndale Peaker Energy Center,1000551,1651 WEST DERBY AVENUE,28.0534,-81.8059,AUBURNDALE,Polk,FL,33823,CALPINE CORP (100%),0,D
2017,Audrain Power Plant,1001379,40897 HIGHWAY P,39.3092,-91.5369,VANDALIA,Audrain,MO,63382,AMEREN CORP (100%),21074,D
2017,Augustus Energy Resources LLC,1008053,2016 Grand Avenue,45.78413,-108.56738,Billings,YELLOWSTONE,MT,59102,AUGUSTUS ENERGY RESOURCES LLC (100%),20891,W
2017,"Auria Albemarle, LLC",1002822,313 BETHANY ROAD,35.3982,-80.20477,ALBEMARLE,STANLY COUNTY,NC,28001,Auria Solutions USA INC (100%),34390,C
2017,Auriga Polymers Inc.,1001780,1550 Dewberry Road,35.027817,-81.87896,SPARTANBURG,SPARTANBURG,SC,29307,INDORAMA VENTURES HOLDINGS LP (100%),94017,C
2017,Aurora Generating Station,1001397,2909 NORTH EOLA ROAD,41.8151,-88.2265,AURORA,Dupage,IL,60504,"LS Power Development, LLC (100%)",229450,D
2017,Australis TMS Inc. 210 Mid-Gulf Coast Basin,1013091,"333 Clay Street, Suite 3680",29.752554,-95.3704009,Houston,,TX,77002,,49515,W
2017,Aux Sable Midstream - Palermo Conditioning Plant,1008835,1638 74th Ave. NW,48.288685,-102.223876,Palermo,MOUNTRAIL,ND,58769,Aux Sable Midstream LLC (100%),21233,"C,NN,W"
2017,Avago Technologies,1008734,4380 Ziegler Road,40.5236,-105.02021,Fort Collins,LARIMER COUNTY,CO,80525,BROADCOM LTD (100%),13206,"C,I"
2017,Avista Corporation-WA,1003050,1411 E. Mission,47.66,-117.39,Spokane,SPOKANE,WA,99220,AVISTA CORP (100%),19,"NN,W"
2017,Avon Lake Power Plant,1000843,33570,41.5042,-82.05,AVON LAKE,Lorain,OH,44012,NRG ENERGY INC (100%),508946,"C,D"
2017,"Axiall, Aberdeen",1003903,715 HIGHWAY 25 SOUTH,33.813889,-88.556114,ABERDEEN,MONROE COUNTY,MS,39730,WESTLAKE CHEMICAL CORP (100%),65111,C
2017,"Axiall, LLC",1002350,26100 STATE HIGHWAY 405 SOUTH,30.262255,-91.185837,PLAQUEMINE,IBERVILLE PARISH,LA,70764,WESTLAKE CHEMICAL CORP (100%),1167059,"C,X"
2017,"Axiall, LLC",1007750,1600 VCM PLANT ROAD,30.252222,-93.284444,WESTLAKE,CALCASIEU,LA,70669,AXIALL CORP (100%),68067,"C,X"
2017,"B BRAUN MEDICAL, INC",1005872,2525 MCGAW AVE,33.6878,-117.8379,IRVINE,ORANGE COUNTY,CA,92614,B BRAUN MEDICAL US (100%),46237,C
2017,B L England,1000732,900 NORTH SHORE ROAD,39.29,-74.6339,MARMORA,Cape May,NJ,8223,RC Cape May Holdings LLC (100%),22659,"C,D"
2017,"BA A 133 B, C-AUX, E (Complex ID # 10249)",1011597,,27.835135,-96.013057,Offshore,,TX,0,FIELDWOOD ENERGY LLC (100%),17625,"C,W"
2017,BADAMI DEVELOPMENT FACILITY,1007807,"70.151006 N, -147.097267 W",70.150997,-147.097369,Badami Unit,NORTH SLOPE BOROUGH,AK,99734,SAVANT ALASKA LLC (67.5%); ASRCEX (32.5%),174569,W
2017,BADGER CREEK LIMITED,1002728,34759 LENCIONI AVE,35.44735,-119.08652,BAKERSFIELD,KERN COUNTY,CA,93308,BADGER CREEK LTD (100%),8177,C
2017,BADGER STATE ETHANOL,1002032,820 West 17th Street,42.5949,-89.66691,MONROE,GREEN COUNTY,WI,53566,BADGER STATE ETHANOL LLC (100%),86900,"C,II,PP"
2017,BAILEY CMP STN,1006833,2844 County Road 3115,33.478057,-96.147923,BAILEY,FANNIN,TX,75413,ENERGY TRANSFER PARTNERS LP (100%),16165,"C,W"
2017,BALL STATE UNIVERSITY,1004171,2000 W UNIVERSITY AVE,40.19765,-85.40893,MUNCIE,DELAWARE COUNTY,IN,47306,STATE OF INDIANA (100%),25821,C
2017,"BARGATH, INC.- PARACHUTE",1002943,,39.487297,-108.111356,"PARACHUTE, 3.4 MI NW OF",GARFIELD COUNTY,CO,81635,WILLIAMS PARTNERS LP (100%),254487,"C,PP,W"
2017,BARRICK WESTERN 102 POWER PLANT,1004748,2555 WALTHAM WAY,39.55904,-119.51061,MCCARRAN,STOREY COUNTY,NV,89434,BARRICK GOLD CORP (100%),138057,C
2017,BARROW UTILITIES & ELECTRIC,1005395,1295 AGVIK STREET,71.292071,-156.77847,BARROW,NORTH SLOPE,AK,99723,BARROW UTILITIES & ELECTRIC COOPERATIVE INC (100%),43729,C
2017,BARTHOLOMEW COUNTY LANDFILL II,1002167,811 E CR 450 S,39.134761,-85.93343,COLUMBUS,BARTHOLOMEW,IN,47201,BARTHOLOMEW COUNTY SOLID WASTE MANAGEMENT DISTRICT (100%),24,"C,HH"
2017,BARTON COUNTY SANITARY LANDFILL,1002401,350 NE 30 ROAD,38.4082,-98.7054,GREAT BEND,BARTON COUNTY,KS,67530,BARTON COUNTY (100%),16,"C,HH"
2017,BASF BEAUMONT AGRO PLANT,1005850,14385 WEST PORT ARTHUR ROAD,29.971389,-94.053333,BEAUMONT,JEFFERSON,TX,77705,BASF CORP (100%),54082,C
2017,BASF CORP - GEISMAR SITE,1004208,8404 RIVER ROAD HIGHWAY 75,30.209725,-91.012892,GEISMAR,ASCENSION PARISH,LA,70734,BASF CORP (100%),824155,"C,X"
2017,BASF CORP - PASADENA PLANT,1002613,4403 LA PORTE FWY,29.731639,-95.152083,PASADENA,HARRIS,TX,77501,BASF CORP (100%),65388,C
2017,BASF CORP ATTAPULGUS OPS,1007885,141 ENGELHARD RD,30.738055,-84.49394,ATTAPULGUS,DECATUR COUNTY,GA,39815,BASF CORP (100%),96714,C
2017,BASF CORP SAVANNAH OPERATIONS,1002622,1800 EAST PRESIDENT STREET,32.07069,-81.0604,SAVANNAH,CHATHAM COUNTY,GA,31404,BASF CORP (100%),49014,C
2017,BASF CORPORATION,1000017,3150 HWY JJ,39.834118,-91.436791,PALMYRA,MARION,MO,63461,BASF CORP (100%),143109,C
2017,BASF CORPORATION,1003551,1379 CIBA RD,31.279,-87.9955,MC INTOSH,WASHINGTON COUNTY,AL,36553,BASF CORP (100%),70198,C
2017,BASF Corporation,1000356,2525 SOUTH KENSINGTON AVE,41.085542,-87.880542,KANKAKEE,KANKAKEE COUNTY,IL,60901,BASF CORP (100%),30423,C
2017,BASF Corporation,1005378,205 South James Street,39.71161,-75.60906,Newport,NEW CASTLE COUNTY,DE,19804,BASF CORP (100%),32481,C
2017,BASF Corporation,1006829,Highway 18 Spur,32.890393,-83.344945,Gordon,WILKINSON COUNTY,GA,31031,BASF CORP (100%),48175,C
2017,BASF Corporation,1003325,1277 Dedrick Road,32.852745,-83.232553,McIntyre,WILKINSON COUNTY,GA,31054,BASF CORP (100%),194755,C
2017,BASF FREEPORT SITE,1001934,602 COPPER ROAD,29.002075,-95.399777,FREEPORT,BRAZORIA COUNTY,TX,77541,BASF CORP (100%),717637,C
2017,BASF TOTAL PETROCHEMICALS LLC,1006543,7501 GULFWAY DR,29.951649,-93.887272,PORT ARTHUR,JEFFERSON,TX,77642,BASF CORP (100%),1648972,"C,X"
2017,BASIC AMERICAN FOODS,1006355,434 SOUTH EMERSON AVENUE,43.37523,-112.127612,SHELLEY,BINGHAM COUNTY,ID,83274,BASIC AMERICAN FOODS (100%),29474,C
2017,BASIC AMERICAN FOODS,1004740,415 W. COLLINS RD.,43.199515,-112.382812,BLACKFOOT,BINGHAM,ID,83221,BASIC AMERICAN FOODS (100%),60853,C
2017,BATTLE CREEK LANDFILL,1002639,219 LANDFILL DRIVE,38.622463,-78.586795,LURAY,PAGE COUNTY,VA,22835,PAGE COUNTY (100%),6,"C,HH"
2017,BAY COUNTY WASTE - TO - ENERGY FACILITY,1004618,6510 BAY LINE DRIVE,30.2656,-85.5214,PANAMA CITY,BAY COUNTY,FL,32404,BAY COUNTY (100%),48247,C
2017,BAYER CROPSCIENCE,1001918,8400 HAWTHORN ROAD,39.121472,-94.473417,KANSAS CITY,JACKSON COUNTY,MO,64120,BAYER GROUP (100%),33248,C
2017,BAYVIEW LANDFILL,1006417,"10800 South State Road 68, 764965",39.95249,-111.95619,Elberta,UTAH,UT,84626,NORTHERN UTAH ENVIRONMENTAL RESOURCE AGENCY (100%),2,"C,HH"
2017,BBOG Gulf Coast Basin #220,1011534,"18615 Tuscany Stone, STE 300",29.61182,-98.49029,San Antonio,BEXAR COUNTY,TX,78258,BLACKBRUSH O & G LLC (100%),60518,W
2017,"BD LAPLACE, LLC",1000330,138 HWY 3217,30.03686,-90.46454,LAPLACE,ST. JOHN THE BAPTIST PARISH,LA,70068,BAYOU STEEL GROUP (100%),66099,"C,Q"
2017,BEACON HEATING,1006384,541 MADISON STREET,42.33811,-83.04382,DETROIT,WAYNE COUNTY,MI,48226,THERMAL VENTURE (100%),80630,C
2017,BEAR ISLAND PAPER COMPANY LLC,1005038,10026 OLD RIDGE ROAD,37.8181,-77.4375,ASHLAND,HANOVER COUNTY,VA,23005,BD WHITE BIRCH INVESTMENT LLC (100%),19391,C
2017,BEAR MOUNTAIN LIMITED,1006139,34759 LENCIONI AVE,35.44735,-119.08652,BAKERSFIELD,KERN COUNTY,CA,93308,BEAR MOUNTAIN LTD (100%),16744,C
2017,BEAUMONT POLYETHYLENE PLANT,1006416,11440 HWY 90 WEST,30.068247,-94.23005,BEAUMONT,JEFFERSON COUNTY,TX,77713,EXXONMOBIL CORP (100%),26604,C
2017,BEAVER CREEK GAS PLANT,1007568,380 Beaver Creek Road,42.8464,-108.318,RIVERTON,FREMONT,WY,82501,DEVON ENERGY CORP (100%),44715,"C,NN,W"
2017,BECKVILLE GAS PROCESSING PLANT,1012062,329 COUNTY ROAD 257,32.235649,-94.486066,BECKVILLE,PANOLA COUNTY,TX,75631,ENBRIDGE ENERGY MANAGEMENT (100%),71120,"C,W"
2017,BEECH HOLLOW SANITARY LANDFILL *,1004815,28 AW LONG ROAD,39.12929,-82.465678,WELLSTON,JACKSON,OH,45692,RUMPKE CONSOLIDATED COS INC (100%),40,"C,HH"
2017,BELLEFIELD BOILER PLANT,1005525,,40.442121,-79.949221,PITTSBURGH,ALLEGHENY COUNTY,PA,15213,BELLEFIELD BOILER PLANT (100%),57013,C
2017,BENEDUM GAS PLANT,1002325,10501 HIGHWAY 1555,31.362088,-101.77962,MIDKIFF,UPTON COUNTY,TX,79755,WTG South Permian Midstream LLC (100%),192076,"C,W"
2017,BENTONITE PERFORMANCE MINERALS LLC LOVELL,1003718,789 HWY 14A,44.82434,-108.14365,LOVELL,BIG HORN COUNTY,WY,82431,HALLIBURTON ENERGY SERVICES (100%),33875,C
2017,BENTONITE PERFORMANCE MINERALS-COLONY,1003913,554 HWY 212 (ZIP PROVIDED IS NOT WY),44.68109,-103.8518,BELLE FOURCHE,BUTTE COUNTY,SD,57717,HALLIBURTON ENERGY SERVICES (100%),32344,C
2017,BERNICE LAKE,1005268,55244 CHEVRON REFINERY ROAD,60.693619,-151.387377,NIKISKI,KENAI PENINSULA BOROUGH,AK,99635,HOMER ELECTRIC ASSOC (100%),161,C
2017,BETA OCS PARCELS,1004613,,33.576,-118.1232,Offshore,,CA,0,MEMORIAL PRODUCTION PARTNERS LLC (100%),37170,"C,W"
2017,BETHEL CMP STN,1005646,1919 ANDERSON COUNTY ROAD 2608,31.888611,-95.914169,TENNESSEE COLONY,ANDERSON,TX,75861,ENERGY TRANSFER PARTNERS LP (100%),22048,"C,W"
2017,BF GOODRICH TIRE MANUFACTURING,1006093,18906 Old 24,41.135806,-84.904667,WOODBURN,ALLEN COUNTY,IN,46797,MICHELIN NORTH AMERICA INC (100%),29741,C
2017,"BHP Billiton Arkoma Basin, AAPG Basin 345",1008588,1500 Post Oak Blvd,29.752863,-95.459685,Houston,HARRIS,TX,77056,BHP BILLITON (100%),36263,W
2017,"BHP Billiton Petrohawk Arkla Basin, AAPG Basin 230",1008492,1500 Post Oak Blvd,29.7530996,-95.4621203,Houston,,TX,77056,BHP BILLITON (100%),36650,W
2017,"BHP Billiton Petrohawk Gulf Coast Basin, AAPG Basin 220",1008630,1360 Post Oak Blvd,29.7530996,-95.4621203,Houston,,TX,77433,BHP BILLITON (100%),283591,W
2017,"BHP Billiton Petrohawk Permian Basin, AAPG Basin 430",1008632,6100 S. Yale Suite 500,36.0613546,-95.9515399,Tulsa,,OK,74136,BHP BILLITON (100%),403796,W
2017,BHP Billiton Petroleum 220 Gulf Coast Basin GB,1012452,1360 Post Oak Blvd,29.752733,-95.459855,Houston,HARRIS COUNTY,TX,77056,BHP BILLITON (75%); KINDER MORGAN INC (25%),180878,W
2017,BHP Billiton Petroleum 345 Arkoma Basin GB,1012433,1500 Post Oak Blvd,29.75253,-95.46009,Houston,HARRIS COUNTY,TX,77056,BHP BILLITON (100%),88828,W
2017,BIG RIVER LANDFILL,1006223,52 LANDFILL ROAD,33.408492,-90.962802,LELAND,WASHINGTON,MS,38756,REPUBLIC SERVICES INC (100%),1,"C,HH"
2017,BIG RIVER RESOURCES GALVA LLC,1006787,1100 SE 2ND STREET,41.169691,-90.024473,GALVA,HENRY COUNTY,IL,61434,BIG RIVER RESOURCES LLC (100%),173496,"C,II"
2017,BIG RIVER RESOURCES WEST BURLINGTON LLC,1002443,15210 103RD ST,40.829108,-91.225936,WEST BURLINGTON,DES MOINES COUNTY,IA,52655,BIG RIVER RESOURCES LLC (100%),168019,"C,II"
2017,BIG RIVER UNITED ENERGY LLC,1005626,3294 VINE RD6,42.4874,-91.161,DYERSVILLE,DELAWARE COUNTY,IA,52040,BIG RIVER RESOURCES LLC (50.5%); UNITED COOPERATIVE (34%); RUMBOLD & KUHN INC (15.5%),175658,"C,II"
2017,BIG SPRING REFINERY,1006961,200 REFINERY RD; INTERSECTION OF I-20 & REFINERY RD,32.269104,-101.417673,BIG SPRING,HOWARD COUNTY,TX,79720,ALON USA LP (100%),850749,"C,MM,TT,Y"
2017,BIG WEST OIL LLC,1009068,333 WEST CENTER STREET,40.838386,-111.921443,NORTH SALT LAKE,DAVIS COUNTY,UT,84054,FJ MANAGEMENT (100%),256324,"C,MM,Y"
2017,BIOGEN INC,1000383,225 Binney Street,42.364376,-71.088229,CAMBRIDGE,MIDDLESEX COUNTY,MA,2142,BIOGEN IDEC INC (100%),29895,C
2017,BIOKYOWA,1006002,5469 NASH ROAD,37.239952,-89.598474,CAPE GIRARDEAU,CAPE GIRARDEAU COUNTY,MO,63701,KYOWA HAKKO BIO (100%),28727,C
2017,BIRON MILL,1003327,621 BIRON DR,44.4289,-89.7817,BIRON,WOOD COUNTY,WI,54494,CATALYST PAPER OPERATIONS INC (100%),176203,C
2017,BKV Operating LLC,1009732,1200 17th Street Suite 1850,29.75788,-95.37013,Denver,HARRIS COUNTY,CO,80202,BKV Operating LLC (100%),3661,W
2017,BLACK BAY CENTRAL FACILITY,1002858,,29.57,-89.5124,Offshore,PLAQUEMINES,LA,0,HELIS OIL & GAS LLC (100%),22437,"C,W"
2017,BLACK DIAMOND GAS PLANT,1002502,6610 LIPAN HWY,32.477772,-97.897608,GRANBURY,HOOD,TX,76048,DCP MIDSTREAM LP (100%),20890,"C,W"
2017,BLACKBURN SANITARY LANDFILL,1001943,3993 ROCKY FORD ROAD,35.60606,-81.30738,NEWTON,CATAWBA COUNTY,NC,28658,CATAWBA COUNTY (100%),59,"C,HH"
2017,BLOCK 31 GAS PLANT,1001132,1501 FM 1601,31.4417,-102.462,CRANE,CRANE,TX,79731,OCCIDENTAL PETROLEUM CORP (100%),98984,"C,W"
2017,BLOOMFIELD CMP STN,1005846,,36.43421,-107.56535,BLOOMFIELD,Rio Arriba,NM,87413,ENERGY TRANSFER PARTNERS LP (100%),31511,"C,W"
2017,BLUE RIDGE RECYCLING & DISPOSAL FACILITY,1004082,2700 WINCHESTER RD,37.71186,-83.97614,IRVINE,ESTILL COUNTY,KY,40336,ADS WASTE HOLDINGS INC (100%),10,"C,HH"
2017,BLUFF ROAD LANDFILL,1002158,6001 BLUFF RD,40.9147,-96.6408,LINCOLN,LANCASTER COUNTY,NE,68517,CITY OF LINCOLN NEBRASKA (100%),52,"C,HH"
2017,BMW MANUFACTURING CORPORATION,1005880,1400 HIGHWAY 101 SOUTH,34.904943,-82.178888,GREER,SPARTANBURG COUNTY,SC,29651,BMW OF NORTH AMERICA LLC (100%),48909,C
2017,BOC 220 Gulf Coast Basin Onshore,1008548,810 Eighth Street,33.91154,-98.49282,Wichita Falls,WICHITA,TX,76301,BOC 220 GULF COAST BASIN ONSHORE (100%),4805,W
2017,BOEING HELICOPTER DIV,1000638,,39.862773,-75.321425,RIDLEY PARK,DELAWARE COUNTY,PA,19078,THE BOEING CO (100%),23056,C
2017,BOISE PAPER,1002893,31831 WEST HIGHWAY 12,46.10396,-118.9184,WALLULA,WALLA WALLA COUNTY,WA,99363,PACKAGING CORP OF AMERICA (100%),143710,"AA,C,PP,TT"
2017,BOISE WHITE PAPER LLC,1007994,400 2ND STREET,48.605458,-93.406703,INTERNATIONAL FALLS,KOOCHICHING COUNTY,MN,56649,PACKAGING CORP OF AMERICA (100%),175054,"AA,C,PP"
2017,BOISE WHITE PAPER MILL,1002963,4585 INDUSTRIAL RD.,31.492253,-87.898805,JACKSON,CLARKE COUNTY,AL,36545,PACKAGING CORP OF AMERICA (100%),212802,"AA,C,II,PP,TT"
2017,BOLP - BASIN 305 G&B,1012450,1165 ELKVIEW DRIVE,45.01368,-84.67351,GAYLORD,OTSEGO COUNTY,MI,49735,BREITBURN ENERGY CO LP (100%),71578,W
